{"geonameid": 2986043, "name": "Pic de Font Blanca", "latitude": 42.64991, "longitude": 1.53335, "country_code": "AD", "population": 0}
{"geonameid": 2994701, "name": "Roc Mélé", "latitude": 42.58765, "longitude": 1.74028, "country_code": "AD", "population": 0}
{"geonameid": 3007683, "name": "Pic des Langounelles", "latitude": 42.61203, "longitude": 1.47364, "country_code": "AD", "population": 0}
{"geonameid": 3017832, "name": "Pic de les Abelletes", "latitude": 42.52535, "longitude": 1.73343, "country_code": "AD", "population": 0}
{"geonameid": 3017833, "name": "Estany de les Abelletes", "latitude": 42.52915, "longitude": 1.73362, "country_code": "AD", "population": 0}
{"geonameid": 3023203, "name": "Port Vieux de la Coume d’Ose", "latitude": 42.62568, "longitude": 1.61823, "country_code": "AD", "population": 0}
{"geonameid": 3029315, "name": "Port de la Cabanette", "latitude": 42.6, "longitude": 1.73333, "country_code": "AD", "population": 0}
{"geonameid": 3034945, "name": "Port Dret", "latitude": 42.60172, "longitude": 1.45562, "country_code": "AD", "population": 0}
{"geonameid": 3038814, "name": "Costa de Xurius", "latitude": 42.50692, "longitude": 1.47569, "country_code": "AD", "population": 0}
{"geonameid": 3038815, "name": "Font de la Xona", "latitude": 42.55003, "longitude": 1.44986, "country_code": "AD", "population": 0}
{"geonameid": 3038816, "name": "Xixerella", "latitude": 42.55327, "longitude": 1.48736, "country_code": "AD", "population": 0}
{"geonameid": 3038818, "name": "Riu Xic", "latitude": 42.57165, "longitude": 1.67554, "country_code": "AD", "population": 0}
{"geonameid": 3038819, "name": "Pas del Xic", "latitude": 42.49766, "longitude": 1.57597, "country_code": "AD", "population": 0}
{"geonameid": 3038820, "name": "Roc del Xeig", "latitude": 42.56068, "longitude": 1.4898, "country_code": "AD", "population": 0}
{"geonameid": 3038821, "name": "Collada del Xeig", "latitude": 42.57512, "longitude": 1.49009, "country_code": "AD", "population": 0}
{"geonameid": 3038822, "name": "Fonts Vives", "latitude": 42.49829, "longitude": 1.56428, "country_code": "AD", "population": 0}
{"geonameid": 3038823, "name": "Roc de Vista", "latitude": 42.49922, "longitude": 1.48118, "country_code": "AD", "population": 0}
{"geonameid": 3038824, "name": "Obaga de Vista", "latitude": 42.47935, "longitude": 1.44621, "country_code": "AD", "population": 0}
{"geonameid": 3038825, "name": "Coll de Vista", "latitude": 42.47611, "longitude": 1.60578, "country_code": "AD", "population": 0}
{"geonameid": 3038826, "name": "Coll de Vista", "latitude": 42.47552, "longitude": 1.44173, "country_code": "AD", "population": 0}
{"geonameid": 3038827, "name": "Visanseny", "latitude": 42.57488, "longitude": 1.61616, "country_code": "AD", "population": 0}
{"geonameid": 3038828, "name": "Roc de la Vinya", "latitude": 42.52776, "longitude": 1.56446, "country_code": "AD", "population": 0}
{"geonameid": 3038829, "name": "Canal de la Vinya", "latitude": 42.52232, "longitude": 1.52319, "country_code": "AD", "population": 0}
{"geonameid": 3038830, "name": "Bosc de Villar", "latitude": 42.60135, "longitude": 1.5434, "country_code": "AD", "population": 0}
{"geonameid": 3038831, "name": "Torrent de Vila", "latitude": 42.53414, "longitude": 1.56678, "country_code": "AD", "population": 0}
{"geonameid": 3038832, "name": "Vila", "latitude": 42.53176, "longitude": 1.56654, "country_code": "AD", "population": 0}
{"geonameid": 3038833, "name": "Basers de Vicenç", "latitude": 42.47669, "longitude": 1.4829, "country_code": "AD", "population": 0}
{"geonameid": 3038834, "name": "Pla de Viàs", "latitude": 42.59001, "longitude": 1.65996, "country_code": "AD", "population": 0}
{"geonameid": 3038835, "name": "Vial del Cardaire", "latitude": 42.56372, "longitude": 1.50503, "country_code": "AD", "population": 0}
{"geonameid": 3038836, "name": "Font del Vi", "latitude": 42.52342, "longitude": 1.47698, "country_code": "AD", "population": 0}
{"geonameid": 3038837, "name": "Font Verda", "latitude": 42.5557, "longitude": 1.55859, "country_code": "AD", "population": 0}
{"geonameid": 3038838, "name": "Costa Verda", "latitude": 42.48297, "longitude": 1.66086, "country_code": "AD", "population": 0}
{"geonameid": 3038839, "name": "Costa Verda", "latitude": 42.48749, "longitude": 1.57108, "country_code": "AD", "population": 0}
{"geonameid": 3038840, "name": "Serrat de Ventader", "latitude": 42.49157, "longitude": 1.43183, "country_code": "AD", "population": 0}
{"geonameid": 3038841, "name": "Bony de Vellatocina", "latitude": 42.61246, "longitude": 1.50594, "country_code": "AD", "population": 0}
{"geonameid": 3038842, "name": "Pleta Vella", "latitude": 42.51143, "longitude": 1.60976, "country_code": "AD", "population": 0}
{"geonameid": 3038843, "name": "Solà Vell", "latitude": 42.46645, "longitude": 1.47647, "country_code": "AD", "population": 0}
{"geonameid": 3038844, "name": "Port Vell", "latitude": 42.65315, "longitude": 1.55207, "country_code": "AD", "population": 0}
{"geonameid": 3038845, "name": "Port Negre del Pallars", "latitude": 42.56799, "longitude": 1.44412, "country_code": "AD", "population": 0}
{"geonameid": 3038846, "name": "Bancal Vedeller", "latitude": 42.60103, "longitude": 1.45896, "country_code": "AD", "population": 0}
{"geonameid": 3038847, "name": "Vedat del Xeig", "latitude": 42.56223, "longitude": 1.48785, "country_code": "AD", "population": 0}
{"geonameid": 3038848, "name": "Vedat dels Plans", "latitude": 42.53983, "longitude": 1.50408, "country_code": "AD", "population": 0}
{"geonameid": 3038849, "name": "Vedat de Coll de les Cases", "latitude": 42.57491, "longitude": 1.49849, "country_code": "AD", "population": 0}
{"geonameid": 3038850, "name": "Serra del Vedat", "latitude": 42.46836, "longitude": 1.48497, "country_code": "AD", "population": 0}
{"geonameid": 3038851, "name": "Planades del Vedat", "latitude": 42.53939, "longitude": 1.50116, "country_code": "AD", "population": 0}
{"geonameid": 3038852, "name": "Veda de Sorteny", "latitude": 42.62075, "longitude": 1.55042, "country_code": "AD", "population": 0}
{"geonameid": 3038853, "name": "Veda del Castellar", "latitude": 42.62578, "longitude": 1.50914, "country_code": "AD", "population": 0}
{"geonameid": 3038854, "name": "Canal de les Veces", "latitude": 42.52405, "longitude": 1.52124, "country_code": "AD", "population": 0}
{"geonameid": 3038855, "name": "Coma de Varilles", "latitude": 42.63797, "longitude": 1.52599, "country_code": "AD", "population": 0}
{"geonameid": 3038856, "name": "Portella de les Vaques", "latitude": 42.56734, "longitude": 1.44421, "country_code": "AD", "population": 0}
{"geonameid": 3038857, "name": "Pas de les Vaques", "latitude": 42.58129, "longitude": 1.70146, "country_code": "AD", "population": 0}
{"geonameid": 3038858, "name": "Collada de les Vaques", "latitude": 42.56354, "longitude": 1.56884, "country_code": "AD", "population": 0}
{"geonameid": 3038859, "name": "Roc del Vaquer", "latitude": 42.63442, "longitude": 1.47968, "country_code": "AD", "population": 0}
{"geonameid": 3038860, "name": "Valls de la Coma", "latitude": 42.60079, "longitude": 1.63691, "country_code": "AD", "population": 0}
{"geonameid": 3038861, "name": "Vall d'Incles", "latitude": 42.58386, "longitude": 1.66331, "country_code": "AD", "population": 0}
{"geonameid": 3038862, "name": "Vall de Soldeu", "latitude": 42.56103, "longitude": 1.68234, "country_code": "AD", "population": 0}
{"geonameid": 3038863, "name": "Riu de la Vall del Riu", "latitude": 42.57178, "longitude": 1.61415, "country_code": "AD", "population": 0}
{"geonameid": 3038864, "name": "Estany Gran de la Vall del Riu", "latitude": 42.60065, "longitude": 1.59278, "country_code": "AD", "population": 0}
{"geonameid": 3038865, "name": "Cascada de la Vall del Riu", "latitude": 42.57326, "longitude": 1.61423, "country_code": "AD", "population": 0}
{"geonameid": 3038866, "name": "Canals de la Vall del Riu", "latitude": 42.59059, "longitude": 1.60713, "country_code": "AD", "population": 0}
{"geonameid": 3038867, "name": "Camí de la Vall del Riu", "latitude": 42.58421, "longitude": 1.61129, "country_code": "AD", "population": 0}
{"geonameid": 3038868, "name": "Bosc de la Vall del Riu", "latitude": 42.58333, "longitude": 1.61667, "country_code": "AD", "population": 0}
{"geonameid": 3038869, "name": "Vall del Riu", "latitude": 42.59499, "longitude": 1.60747, "country_code": "AD", "population": 0}
{"geonameid": 3038870, "name": "Coll de Vall Civera", "latitude": 42.48818, "longitude": 1.66373, "country_code": "AD", "population": 0}
{"geonameid": 3038871, "name": "Obac de la Vall", "latitude": 42.46602, "longitude": 1.50498, "country_code": "AD", "population": 0}
{"geonameid": 3038872, "name": "Riu Valira d’Orient", "latitude": 42.51146, "longitude": 1.53647, "country_code": "AD", "population": 0}
{"geonameid": 3038873, "name": "Riu Valira del Nord", "latitude": 42.5123, "longitude": 1.53617, "country_code": "AD", "population": 0}
{"geonameid": 3038874, "name": "Estanys de la Val del Riu", "latitude": 42.60398, "longitude": 1.59622, "country_code": "AD", "population": 0}
{"geonameid": 3038875, "name": "Vaca Morta", "latitude": 42.5681, "longitude": 1.76256, "country_code": "AD", "population": 0}
{"geonameid": 3038876, "name": "Riu d’Urina", "latitude": 42.5594, "longitude": 1.58998, "country_code": "AD", "population": 0}
{"geonameid": 3038877, "name": "Serrat de la Uïna", "latitude": 42.55975, "longitude": 1.52393, "country_code": "AD", "population": 0}
{"geonameid": 3038878, "name": "Obaga de la Tuta", "latitude": 42.48885, "longitude": 1.44734, "country_code": "AD", "population": 0}
{"geonameid": 3038879, "name": "Cova de la Tuta", "latitude": 42.48678, "longitude": 1.44548, "country_code": "AD", "population": 0}
{"geonameid": 3038880, "name": "Roca del Tut", "latitude": 42.54941, "longitude": 1.45701, "country_code": "AD", "population": 0}
{"geonameid": 3038881, "name": "Coll de Turer", "latitude": 42.55784, "longitude": 1.46979, "country_code": "AD", "population": 0}
{"geonameid": 3038882, "name": "Font del Tudó", "latitude": 42.44205, "longitude": 1.53489, "country_code": "AD", "population": 0}
{"geonameid": 3038883, "name": "Estany de les Truites", "latitude": 42.57705, "longitude": 1.44801, "country_code": "AD", "population": 0}
{"geonameid": 3038884, "name": "Serra de Tristaina", "latitude": 42.65048, "longitude": 1.47705, "country_code": "AD", "population": 0}
{"geonameid": 3038885, "name": "Riu de Tristaina", "latitude": 42.615, "longitude": 1.53707, "country_code": "AD", "population": 0}
{"geonameid": 3038886, "name": "Pic de Tristaina", "latitude": 42.65265, "longitude": 1.49242, "country_code": "AD", "population": 0}
{"geonameid": 3038887, "name": "Clot de Tres Torrents", "latitude": 42.54063, "longitude": 1.53382, "country_code": "AD", "population": 0}
{"geonameid": 3038888, "name": "Bony de Tres Corts", "latitude": 42.52911, "longitude": 1.53538, "country_code": "AD", "population": 0}
{"geonameid": 3038889, "name": "Canal dels Trèmols", "latitude": 42.49814, "longitude": 1.49076, "country_code": "AD", "population": 0}
{"geonameid": 3038890, "name": "Travenc", "latitude": 42.60215, "longitude": 1.69377, "country_code": "AD", "population": 0}
{"geonameid": 3038891, "name": "Pleta de la Trava", "latitude": 42.48464, "longitude": 1.62251, "country_code": "AD", "population": 0}
{"geonameid": 3038892, "name": "Coll de la Trava", "latitude": 42.47973, "longitude": 1.47555, "country_code": "AD", "population": 0}
{"geonameid": 3038893, "name": "Canal de la Trava", "latitude": 42.57395, "longitude": 1.52496, "country_code": "AD", "population": 0}
{"geonameid": 3038894, "name": "Bosc de la Trava", "latitude": 42.4844, "longitude": 1.63007, "country_code": "AD", "population": 0}
{"geonameid": 3038895, "name": "Font dels Traginers", "latitude": 42.43156, "longitude": 1.52845, "country_code": "AD", "population": 0}
{"geonameid": 3038896, "name": "Pla de les Toves", "latitude": 42.46355, "longitude": 1.45008, "country_code": "AD", "population": 0}
{"geonameid": 3038897, "name": "Torrent del Tossalroi", "latitude": 42.47256, "longitude": 1.51244, "country_code": "AD", "population": 0}
{"geonameid": 3038898, "name": "Tossal Gran", "latitude": 42.47986, "longitude": 1.4892, "country_code": "AD", "population": 0}
{"geonameid": 3038899, "name": "Tossalet i Vinyals", "latitude": 42.48597, "longitude": 1.4891, "country_code": "AD", "population": 0}
{"geonameid": 3038900, "name": "Bosc del Tossal de les Poselles", "latitude": 42.53331, "longitude": 1.50326, "country_code": "AD", "population": 0}
{"geonameid": 3038901, "name": "Tossal", "latitude": 42.45927, "longitude": 1.49176, "country_code": "AD", "population": 0}
{"geonameid": 3038902, "name": "Tosquers", "latitude": 42.56587, "longitude": 1.48763, "country_code": "AD", "population": 0}
{"geonameid": 3038903, "name": "Canal del Tosquer", "latitude": 42.57114, "longitude": 1.52067, "country_code": "AD", "population": 0}
{"geonameid": 3038904, "name": "Bosc del Tosquer", "latitude": 42.57189, "longitude": 1.52369, "country_code": "AD", "population": 0}
{"geonameid": 3038905, "name": "Bosc del Tosquer", "latitude": 42.53793, "longitude": 1.6007, "country_code": "AD", "population": 0}
{"geonameid": 3038906, "name": "Bosc de la Tosca", "latitude": 42.43912, "longitude": 1.45592, "country_code": "AD", "population": 0}
{"geonameid": 3038907, "name": "Tosa d’Incles", "latitude": 42.58675, "longitude": 1.68935, "country_code": "AD", "population": 0}
{"geonameid": 3038908, "name": "Cap de Tosa d’Entor", "latitude": 42.60016, "longitude": 1.65212, "country_code": "AD", "population": 0}
{"geonameid": 3038909, "name": "Tosa de les Mussoles", "latitude": 42.62199, "longitude": 1.68087, "country_code": "AD", "population": 0}
{"geonameid": 3038910, "name": "Pic de la Tosa de Juclar", "latitude": 42.60199, "longitude": 1.72093, "country_code": "AD", "population": 0}
{"geonameid": 3038911, "name": "Collada de la Tosa de Caraup", "latitude": 42.60371, "longitude": 1.6548, "country_code": "AD", "population": 0}
{"geonameid": 3038912, "name": "Planell de la Tosa", "latitude": 42.52916, "longitude": 1.45614, "country_code": "AD", "population": 0}
{"geonameid": 3038913, "name": "Canals de la Tosa", "latitude": 42.59186, "longitude": 1.69687, "country_code": "AD", "population": 0}
{"geonameid": 3038914, "name": "Canal de la Tosa", "latitude": 42.50928, "longitude": 1.56331, "country_code": "AD", "population": 0}
{"geonameid": 3038915, "name": "Bosc de la Tosa", "latitude": 42.54986, "longitude": 1.57558, "country_code": "AD", "population": 0}
{"geonameid": 3038916, "name": "Canal Torta", "latitude": 42.57684, "longitude": 1.51706, "country_code": "AD", "population": 0}
{"geonameid": 3038917, "name": "Canal Torta", "latitude": 42.55184, "longitude": 1.5398, "country_code": "AD", "population": 0}
{"geonameid": 3038918, "name": "Torrent Tort", "latitude": 42.53072, "longitude": 1.58053, "country_code": "AD", "population": 0}
{"geonameid": 3038919, "name": "Torretinyà", "latitude": 42.45175, "longitude": 1.51486, "country_code": "AD", "population": 0}
{"geonameid": 3038920, "name": "Prat d’en Torres", "latitude": 42.59851, "longitude": 1.51773, "country_code": "AD", "population": 0}
{"geonameid": 3038921, "name": "Canals de Torrent Pregó", "latitude": 42.49176, "longitude": 1.49157, "country_code": "AD", "population": 0}
{"geonameid": 3038922, "name": "Canal de Torrentinyà", "latitude": 42.45323, "longitude": 1.51176, "country_code": "AD", "population": 0}
{"geonameid": 3038923, "name": "Torrentill", "latitude": 42.47221, "longitude": 1.49478, "country_code": "AD", "population": 0}
{"geonameid": 3038924, "name": "Camí de Torrent Forcat", "latitude": 42.45736, "longitude": 1.51341, "country_code": "AD", "population": 0}
{"geonameid": 3038925, "name": "Canal del Torrent Cauber", "latitude": 42.60095, "longitude": 1.52226, "country_code": "AD", "population": 0}
{"geonameid": 3038926, "name": "Torre dels Soldats", "latitude": 42.45021, "longitude": 1.58341, "country_code": "AD", "population": 0}
{"geonameid": 3038927, "name": "Torrapuis", "latitude": 42.53573, "longitude": 1.52558, "country_code": "AD", "population": 0}
{"geonameid": 3038928, "name": "Pic de Torradella", "latitude": 42.59369, "longitude": 1.62372, "country_code": "AD", "population": 0}
{"geonameid": 3038929, "name": "Pala de la Torradella", "latitude": 42.59144, "longitude": 1.62356, "country_code": "AD", "population": 0}
{"geonameid": 3038930, "name": "Obaga de Torradella", "latitude": 42.5952, "longitude": 1.62615, "country_code": "AD", "population": 0}
{"geonameid": 3038931, "name": "Canals de Torradella", "latitude": 42.59343, "longitude": 1.63686, "country_code": "AD", "population": 0}
{"geonameid": 3038932, "name": "Borda del Torner", "latitude": 42.5815, "longitude": 1.48657, "country_code": "AD", "population": 0}
{"geonameid": 3038933, "name": "Planell de la Tora", "latitude": 42.55261, "longitude": 1.61504, "country_code": "AD", "population": 0}
{"geonameid": 3038934, "name": "Clots de la Tora", "latitude": 42.46131, "longitude": 1.5772, "country_code": "AD", "population": 0}
{"geonameid": 3038935, "name": "Prat del Toni", "latitude": 42.5595, "longitude": 1.6221, "country_code": "AD", "population": 0}
{"geonameid": 3038936, "name": "Molí del Tomàs", "latitude": 42.57774, "longitude": 1.6505, "country_code": "AD", "population": 0}
{"geonameid": 3038937, "name": "Cortals de Tolse", "latitude": 42.44734, "longitude": 1.47787, "country_code": "AD", "population": 0}
{"geonameid": 3038938, "name": "Bosc de Tolse", "latitude": 42.4483, "longitude": 1.47908, "country_code": "AD", "population": 0}
{"geonameid": 3038939, "name": "Tolse", "latitude": 42.4503, "longitude": 1.48508, "country_code": "AD", "population": 0}
{"geonameid": 3038940, "name": "Basera dels Tolls de l’Olla", "latitude": 42.48484, "longitude": 1.45301, "country_code": "AD", "population": 0}
{"geonameid": 3038941, "name": "Tolls de l’Olla", "latitude": 42.46535, "longitude": 1.56957, "country_code": "AD", "population": 0}
{"geonameid": 3038942, "name": "Torrent del Tirader", "latitude": 42.53145, "longitude": 1.58845, "country_code": "AD", "population": 0}
{"geonameid": 3038943, "name": "Canal del Timbarro", "latitude": 42.50307, "longitude": 1.47727, "country_code": "AD", "population": 0}
{"geonameid": 3038944, "name": "Terres de Serra", "latitude": 42.4779, "longitude": 1.50509, "country_code": "AD", "population": 0}
{"geonameid": 3038945, "name": "Terres de Sant Miguel", "latitude": 42.49748, "longitude": 1.57716, "country_code": "AD", "population": 0}
{"geonameid": 3038946, "name": "Terres del Torrent Pregó", "latitude": 42.54814, "longitude": 1.59154, "country_code": "AD", "population": 0}
{"geonameid": 3038947, "name": "Terres del Solà", "latitude": 42.54187, "longitude": 1.54338, "country_code": "AD", "population": 0}
{"geonameid": 3038948, "name": "Terres de Jacques", "latitude": 42.56995, "longitude": 1.61431, "country_code": "AD", "population": 0}
{"geonameid": 3038949, "name": "Obaga de les Terres de Casamanya", "latitude": 42.57117, "longitude": 1.55095, "country_code": "AD", "population": 0}
{"geonameid": 3038950, "name": "Canal del Terrer Roig", "latitude": 42.5881, "longitude": 1.46094, "country_code": "AD", "population": 0}
{"geonameid": 3038951, "name": "Terrer Roig", "latitude": 42.58892, "longitude": 1.45395, "country_code": "AD", "population": 0}
{"geonameid": 3038952, "name": "Clots dels Terregalls", "latitude": 42.62292, "longitude": 1.61256, "country_code": "AD", "population": 0}
{"geonameid": 3038953, "name": "Terregalls", "latitude": 42.49527, "longitude": 1.52939, "country_code": "AD", "population": 0}
{"geonameid": 3038954, "name": "Terra del Pou", "latitude": 42.47431, "longitude": 1.48904, "country_code": "AD", "population": 0}
{"geonameid": 3038955, "name": "Terra Bogada", "latitude": 42.4682, "longitude": 1.49909, "country_code": "AD", "population": 0}
{"geonameid": 3038956, "name": "Canal del Teixó", "latitude": 42.55646, "longitude": 1.50498, "country_code": "AD", "population": 0}
{"geonameid": 3038957, "name": "Coma de Teix", "latitude": 42.46842, "longitude": 1.47084, "country_code": "AD", "population": 0}
{"geonameid": 3038958, "name": "Font de les Taules", "latitude": 42.55315, "longitude": 1.55727, "country_code": "AD", "population": 0}
{"geonameid": 3038959, "name": "Coma Tarterosa", "latitude": 42.48716, "longitude": 1.45937, "country_code": "AD", "population": 0}
{"geonameid": 3038960, "name": "Bosc de la Tarterosa", "latitude": 42.60215, "longitude": 1.64186, "country_code": "AD", "population": 0}
{"geonameid": 3038961, "name": "Tarter Gran", "latitude": 42.58148, "longitude": 1.45787, "country_code": "AD", "population": 0}
{"geonameid": 3038962, "name": "Tartera Gran", "latitude": 42.48102, "longitude": 1.47442, "country_code": "AD", "population": 0}
{"geonameid": 3038963, "name": "Pont del Tarter", "latitude": 42.57811, "longitude": 1.64897, "country_code": "AD", "population": 0}
{"geonameid": 3038964, "name": "Coll de la Tàpia", "latitude": 42.47156, "longitude": 1.4909, "country_code": "AD", "population": 0}
{"geonameid": 3038965, "name": "Canal Tancada", "latitude": 42.48899, "longitude": 1.55854, "country_code": "AD", "population": 0}
{"geonameid": 3038966, "name": "Roc del Tampuent", "latitude": 42.58498, "longitude": 1.48339, "country_code": "AD", "population": 0}
{"geonameid": 3038967, "name": "Basers de les Tallades", "latitude": 42.50094, "longitude": 1.46747, "country_code": "AD", "population": 0}
{"geonameid": 3038968, "name": "Bosc de la Tallada Nova", "latitude": 42.58466, "longitude": 1.47311, "country_code": "AD", "population": 0}
{"geonameid": 3038969, "name": "Camí de la Tallada", "latitude": 42.4893, "longitude": 1.57116, "country_code": "AD", "population": 0}
{"geonameid": 3038970, "name": "Canal del Tabanell", "latitude": 42.57975, "longitude": 1.51897, "country_code": "AD", "population": 0}
{"geonameid": 3038971, "name": "Bosc del Tabanell", "latitude": 42.58113, "longitude": 1.50496, "country_code": "AD", "population": 0}
{"geonameid": 3038972, "name": "Suriguera", "latitude": 42.58664, "longitude": 1.60654, "country_code": "AD", "population": 0}
{"geonameid": 3038973, "name": "Sudornar", "latitude": 42.58341, "longitude": 1.45016, "country_code": "AD", "population": 0}
{"geonameid": 3038974, "name": "Font del Sucre", "latitude": 42.52245, "longitude": 1.47512, "country_code": "AD", "population": 0}
{"geonameid": 3038975, "name": "Costa de la Sucarana", "latitude": 42.6067, "longitude": 1.49918, "country_code": "AD", "population": 0}
{"geonameid": 3038976, "name": "Canya de la Sucarana", "latitude": 42.60509, "longitude": 1.50477, "country_code": "AD", "population": 0}
{"geonameid": 3038977, "name": "Borda del Sucarana", "latitude": 42.55439, "longitude": 1.58269, "country_code": "AD", "population": 0}
{"geonameid": 3038978, "name": "Riu de Sorteny", "latitude": 42.6236, "longitude": 1.54769, "country_code": "AD", "population": 0}
{"geonameid": 3038979, "name": "Pla de Sorteny", "latitude": 42.62188, "longitude": 1.56503, "country_code": "AD", "population": 0}
{"geonameid": 3038980, "name": "Marrades de Sorteny", "latitude": 42.62147, "longitude": 1.55236, "country_code": "AD", "population": 0}
{"geonameid": 3038981, "name": "Sorteny", "latitude": 42.61675, "longitude": 1.57936, "country_code": "AD", "population": 0}
{"geonameid": 3038982, "name": "Riu de les Soronelles", "latitude": 42.53933, "longitude": 1.64583, "country_code": "AD", "population": 0}
{"geonameid": 3038983, "name": "Collada de les Soronelles", "latitude": 42.54792, "longitude": 1.65159, "country_code": "AD", "population": 0}
{"geonameid": 3038984, "name": "Pic de les Sorobilles", "latitude": 42.56677, "longitude": 1.53956, "country_code": "AD", "population": 0}
{"geonameid": 3038985, "name": "Riu de Sornàs", "latitude": 42.56314, "longitude": 1.52724, "country_code": "AD", "population": 0}
{"geonameid": 3038986, "name": "Clot de Sornàs", "latitude": 42.57766, "longitude": 1.55066, "country_code": "AD", "population": 0}
{"geonameid": 3038987, "name": "Sornàs", "latitude": 42.56461, "longitude": 1.52757, "country_code": "AD", "population": 0}
{"geonameid": 3038988, "name": "Riu de Suriguera", "latitude": 42.58564, "longitude": 1.60996, "country_code": "AD", "population": 0}
{"geonameid": 3038989, "name": "Solana del Soriguer", "latitude": 42.56963, "longitude": 1.55225, "country_code": "AD", "population": 0}
{"geonameid": 3038990, "name": "Clot Sord", "latitude": 42.60053, "longitude": 1.65448, "country_code": "AD", "population": 0}
{"geonameid": 3038991, "name": "Solà de Soquer", "latitude": 42.45544, "longitude": 1.48099, "country_code": "AD", "population": 0}
{"geonameid": 3038992, "name": "Riu de Soplanàs", "latitude": 42.5792, "longitude": 1.62939, "country_code": "AD", "population": 0}
{"geonameid": 3038993, "name": "Borda de Som", "latitude": 42.57027, "longitude": 1.59043, "country_code": "AD", "population": 0}
{"geonameid": 3038994, "name": "Roc de Solobre", "latitude": 42.49267, "longitude": 1.50825, "country_code": "AD", "population": 0}
{"geonameid": 3038995, "name": "Bosc del Solobre", "latitude": 42.49044, "longitude": 1.50667, "country_code": "AD", "population": 0}
{"geonameid": 3038996, "name": "Bosc del Soleador", "latitude": 42.60191, "longitude": 1.52112, "country_code": "AD", "population": 0}
{"geonameid": 3038997, "name": "Camí de Soldeu", "latitude": 42.57724, "longitude": 1.65827, "country_code": "AD", "population": 0}
{"geonameid": 3038998, "name": "Bosc de Soldeu", "latitude": 42.57907, "longitude": 1.67292, "country_code": "AD", "population": 0}
{"geonameid": 3038999, "name": "Soldeu", "latitude": 42.57688, "longitude": 1.66769, "country_code": "AD", "population": 602}
{"geonameid": 3039000, "name": "Solana del Solanyó", "latitude": 42.53909, "longitude": 1.54785, "country_code": "AD", "population": 0}
{"geonameid": 3039001, "name": "Riu del Solanyò", "latitude": 42.5403, "longitude": 1.54193, "country_code": "AD", "population": 0}
{"geonameid": 3039002, "name": "Bosc del Solanyó", "latitude": 42.55022, "longitude": 1.44836, "country_code": "AD", "population": 0}
{"geonameid": 3039003, "name": "Barranc del Solanyó", "latitude": 42.5423, "longitude": 1.44112, "country_code": "AD", "population": 0}
{"geonameid": 3039004, "name": "Solans", "latitude": 42.53893, "longitude": 1.60137, "country_code": "AD", "population": 0}
{"geonameid": 3039005, "name": "Solanet de Ràmio", "latitude": 42.50063, "longitude": 1.5699, "country_code": "AD", "population": 0}
{"geonameid": 3039006, "name": "Terregalls del Solanet", "latitude": 42.62685, "longitude": 1.60523, "country_code": "AD", "population": 0}
{"geonameid": 3039007, "name": "Bosc del Solanet", "latitude": 42.54591, "longitude": 1.47924, "country_code": "AD", "population": 0}
{"geonameid": 3039008, "name": "Solanes de la Peguera", "latitude": 42.45651, "longitude": 1.51879, "country_code": "AD", "population": 0}
{"geonameid": 3039009, "name": "Serra de les Solanelles", "latitude": 42.54876, "longitude": 1.6657, "country_code": "AD", "population": 0}
{"geonameid": 3039010, "name": "Riu de les Solanelles", "latitude": 42.55334, "longitude": 1.68271, "country_code": "AD", "population": 0}
{"geonameid": 3039011, "name": "Collet de les Solanelles", "latitude": 42.56068, "longitude": 1.63082, "country_code": "AD", "population": 0}
{"geonameid": 3039012, "name": "Collada de les Solanelles", "latitude": 42.54489, "longitude": 1.66049, "country_code": "AD", "population": 0}
{"geonameid": 3039013, "name": "Clot de les Solanelles", "latitude": 42.56109, "longitude": 1.63812, "country_code": "AD", "population": 0}
{"geonameid": 3039014, "name": "Canal de les Solanelles", "latitude": 42.56324, "longitude": 1.64181, "country_code": "AD", "population": 0}
{"geonameid": 3039015, "name": "Cabana de les Solanelles", "latitude": 42.54391, "longitude": 1.66123, "country_code": "AD", "population": 0}
{"geonameid": 3039016, "name": "Solanelles", "latitude": 42.54973, "longitude": 1.671, "country_code": "AD", "population": 0}
{"geonameid": 3039017, "name": "Barranc de la Solana del Pas de la Casa", "latitude": 42.53941, "longitude": 1.73436, "country_code": "AD", "population": 0}
{"geonameid": 3039018, "name": "Solana del Lloser d’Ordino", "latitude": 42.54731, "longitude": 1.52097, "country_code": "AD", "population": 0}
{"geonameid": 3039019, "name": "Riu de la Solana del Forn", "latitude": 42.56243, "longitude": 1.67948, "country_code": "AD", "population": 0}
{"geonameid": 3039020, "name": "Obagot de la Solana del Forn", "latitude": 42.54984, "longitude": 1.66303, "country_code": "AD", "population": 0}
{"geonameid": 3039021, "name": "Solana del Forn", "latitude": 42.55607, "longitude": 1.66272, "country_code": "AD", "population": 0}
{"geonameid": 3039022, "name": "Solana de l’Estall Serrer", "latitude": 42.49453, "longitude": 1.62389, "country_code": "AD", "population": 0}
{"geonameid": 3039023, "name": "Solana de les Aubes", "latitude": 42.56034, "longitude": 1.56774, "country_code": "AD", "population": 0}
{"geonameid": 3039024, "name": "Solana de la Baronia", "latitude": 42.5388, "longitude": 1.62326, "country_code": "AD", "population": 0}
{"geonameid": 3039025, "name": "Prats de la Solana", "latitude": 42.56836, "longitude": 1.77496, "country_code": "AD", "population": 0}
{"geonameid": 3039026, "name": "Camí de la Solana", "latitude": 42.44246, "longitude": 1.45091, "country_code": "AD", "population": 0}
{"geonameid": 3039027, "name": "Bosc de la Solana", "latitude": 42.52218, "longitude": 1.47205, "country_code": "AD", "population": 0}
{"geonameid": 3039028, "name": "Solà de Soldeu", "latitude": 42.57771, "longitude": 1.67266, "country_code": "AD", "population": 0}
{"geonameid": 3039029, "name": "Serra del Solà de Sispony", "latitude": 42.53045, "longitude": 1.47634, "country_code": "AD", "population": 0}
{"geonameid": 3039030, "name": "Pic del Solà d’Erts", "latitude": 42.56847, "longitude": 1.5048, "country_code": "AD", "population": 0}
{"geonameid": 3039031, "name": "Solà d’Erts", "latitude": 42.56153, "longitude": 1.49656, "country_code": "AD", "population": 0}
{"geonameid": 3039032, "name": "Solà de Riambert", "latitude": 42.57859, "longitude": 1.5287, "country_code": "AD", "population": 0}
{"geonameid": 3039033, "name": "Serra del Solà de Ràmio", "latitude": 42.50418, "longitude": 1.58339, "country_code": "AD", "population": 0}
{"geonameid": 3039034, "name": "Solà de Ràmio", "latitude": 42.50173, "longitude": 1.58283, "country_code": "AD", "population": 0}
{"geonameid": 3039035, "name": "Bosc del Solà d’Envalira", "latitude": 42.56267, "longitude": 1.6847, "country_code": "AD", "population": 0}
{"geonameid": 3039036, "name": "Carena del Solà d’Engordany", "latitude": 42.52208, "longitude": 1.53759, "country_code": "AD", "population": 0}
{"geonameid": 3039037, "name": "Solà d’Engordany", "latitude": 42.51969, "longitude": 1.53707, "country_code": "AD", "population": 0}
{"geonameid": 3039038, "name": "Solà d’Enclar", "latitude": 42.50652, "longitude": 1.48914, "country_code": "AD", "population": 0}
{"geonameid": 3039039, "name": "Solà d’Encamp", "latitude": 42.53695, "longitude": 1.58068, "country_code": "AD", "population": 0}
{"geonameid": 3039040, "name": "Cresta del Solà de Nadal", "latitude": 42.51112, "longitude": 1.51228, "country_code": "AD", "population": 0}
{"geonameid": 3039041, "name": "Aspres del Solà de Nadal", "latitude": 42.5137, "longitude": 1.52185, "country_code": "AD", "population": 0}
{"geonameid": 3039042, "name": "Solà de Mossers", "latitude": 42.45914, "longitude": 1.46328, "country_code": "AD", "population": 0}
{"geonameid": 3039043, "name": "Solà de Mereig", "latitude": 42.56083, "longitude": 1.58546, "country_code": "AD", "population": 0}
{"geonameid": 3039044, "name": "Solà del Tarter", "latitude": 42.5849, "longitude": 1.64905, "country_code": "AD", "population": 0}
{"geonameid": 3039045, "name": "Solà dels Sulls", "latitude": 42.48854, "longitude": 1.56625, "country_code": "AD", "population": 0}
{"geonameid": 3039046, "name": "Solà dels Plans", "latitude": 42.58384, "longitude": 1.62968, "country_code": "AD", "population": 0}
{"geonameid": 3039047, "name": "Serra del Sola del Quart Mitger", "latitude": 42.54577, "longitude": 1.53975, "country_code": "AD", "population": 0}
{"geonameid": 3039048, "name": "Solà del Quart Mitger", "latitude": 42.54238, "longitude": 1.53702, "country_code": "AD", "population": 0}
{"geonameid": 3039049, "name": "Solà del Pui", "latitude": 42.55503, "longitude": 1.51236, "country_code": "AD", "population": 0}
{"geonameid": 3039050, "name": "Cap del Solà de les Comes", "latitude": 42.57856, "longitude": 1.49624, "country_code": "AD", "population": 0}
{"geonameid": 3039051, "name": "Canal del Solà de les Comes", "latitude": 42.5713, "longitude": 1.49208, "country_code": "AD", "population": 0}
{"geonameid": 3039052, "name": "Solà de la Moixella", "latitude": 42.44273, "longitude": 1.47534, "country_code": "AD", "population": 0}
{"geonameid": 3039053, "name": "Balmes del Solà de l’Allau", "latitude": 42.59436, "longitude": 1.53815, "country_code": "AD", "population": 0}
{"geonameid": 3039054, "name": "Solà de l’Aldosa", "latitude": 42.57983, "longitude": 1.62252, "country_code": "AD", "population": 0}
{"geonameid": 3039055, "name": "Solà de la Farga", "latitude": 42.49531, "longitude": 1.60986, "country_code": "AD", "population": 0}
{"geonameid": 3039056, "name": "Canals del Solà de Juclar", "latitude": 42.60389, "longitude": 1.70297, "country_code": "AD", "population": 0}
{"geonameid": 3039057, "name": "Solà d’Arcavell", "latitude": 42.43343, "longitude": 1.49273, "country_code": "AD", "population": 0}
{"geonameid": 3039058, "name": "Solà d’Andorra", "latitude": 42.51091, "longitude": 1.50732, "country_code": "AD", "population": 0}
{"geonameid": 3039059, "name": "Solà d’Aixovall", "latitude": 42.47959, "longitude": 1.47873, "country_code": "AD", "population": 0}
{"geonameid": 3039060, "name": "Riu del Solà", "latitude": 42.5437, "longitude": 1.47792, "country_code": "AD", "population": 0}
{"geonameid": 3039061, "name": "Clot del Solà", "latitude": 42.4619, "longitude": 1.46137, "country_code": "AD", "population": 0}
{"geonameid": 3039062, "name": "Carrera del Solà", "latitude": 42.53874, "longitude": 1.57666, "country_code": "AD", "population": 0}
{"geonameid": 3039063, "name": "Costa del Sodorn", "latitude": 42.49828, "longitude": 1.46311, "country_code": "AD", "population": 0}
{"geonameid": 3039064, "name": "Pla del Socarrat", "latitude": 42.55393, "longitude": 1.60269, "country_code": "AD", "population": 0}
{"geonameid": 3039065, "name": "Camí del Socarrat", "latitude": 42.58267, "longitude": 1.63922, "country_code": "AD", "population": 0}
{"geonameid": 3039066, "name": "Bosc del Socarrat", "latitude": 42.58627, "longitude": 1.64155, "country_code": "AD", "population": 0}
{"geonameid": 3039067, "name": "Vial de la Socarrada de Coll Carnisser", "latitude": 42.58996, "longitude": 1.46444, "country_code": "AD", "population": 0}
{"geonameid": 3039068, "name": "Pala de Sobre l’Estany", "latitude": 42.61391, "longitude": 1.72592, "country_code": "AD", "population": 0}
{"geonameid": 3039069, "name": "Pala de Sobre les Basses", "latitude": 42.59149, "longitude": 1.70692, "country_code": "AD", "population": 0}
{"geonameid": 3039070, "name": "Basers de Sobre la Pleta", "latitude": 42.59261, "longitude": 1.46359, "country_code": "AD", "population": 0}
{"geonameid": 3039071, "name": "Sobre dels Camps de la Cortinada", "latitude": 42.58232, "longitude": 1.50546, "country_code": "AD", "population": 0}
{"geonameid": 3039072, "name": "Planells Sobirans", "latitude": 42.58908, "longitude": 1.46404, "country_code": "AD", "population": 0}
{"geonameid": 3039073, "name": "Riu del Sisqueró", "latitude": 42.6013, "longitude": 1.6973, "country_code": "AD", "population": 0}
{"geonameid": 3039074, "name": "Camí del Sisquero", "latitude": 42.6013, "longitude": 1.69494, "country_code": "AD", "population": 0}
{"geonameid": 3039075, "name": "Solà de Sispony", "latitude": 42.53091, "longitude": 1.48454, "country_code": "AD", "population": 0}
{"geonameid": 3039076, "name": "Camí de Sispony", "latitude": 42.52857, "longitude": 1.46901, "country_code": "AD", "population": 0}
{"geonameid": 3039077, "name": "Sispony", "latitude": 42.53368, "longitude": 1.51613, "country_code": "AD", "population": 0}
{"geonameid": 3039078, "name": "Pletes del Siscaró", "latitude": 42.59425, "longitude": 1.70477, "country_code": "AD", "population": 0}
{"geonameid": 3039079, "name": "Estanys del Siscaró", "latitude": 42.58654, "longitude": 1.70713, "country_code": "AD", "population": 0}
{"geonameid": 3039080, "name": "Canals del Siscaró", "latitude": 42.58286, "longitude": 1.70562, "country_code": "AD", "population": 0}
{"geonameid": 3039081, "name": "Pic de Siscarou", "latitude": 42.6, "longitude": 1.73333, "country_code": "AD", "population": 0}
{"geonameid": 3039082, "name": "Siscaró", "latitude": 42.58977, "longitude": 1.71206, "country_code": "AD", "population": 0}
{"geonameid": 3039083, "name": "Marrades del Siscar", "latitude": 42.59179, "longitude": 1.71304, "country_code": "AD", "population": 0}
{"geonameid": 3039084, "name": "Canals del Siscar", "latitude": 42.59751, "longitude": 1.71696, "country_code": "AD", "population": 0}
{"geonameid": 3039085, "name": "Basses del Siscar", "latitude": 42.5951, "longitude": 1.71725, "country_code": "AD", "population": 0}
{"geonameid": 3039086, "name": "Sincloset", "latitude": 42.48947, "longitude": 1.50151, "country_code": "AD", "population": 0}
{"geonameid": 3039087, "name": "Port de Siguer", "latitude": 42.64974, "longitude": 1.56563, "country_code": "AD", "population": 0}
{"geonameid": 3039088, "name": "Bosc del Sigarró", "latitude": 42.52948, "longitude": 1.61219, "country_code": "AD", "population": 0}
{"geonameid": 3039089, "name": "Canal de la Sicalma", "latitude": 42.50328, "longitude": 1.47545, "country_code": "AD", "population": 0}
{"geonameid": 3039090, "name": "Portella de Setut", "latitude": 42.46782, "longitude": 1.63909, "country_code": "AD", "population": 0}
{"geonameid": 3039091, "name": "Cabana de Setut", "latitude": 42.48283, "longitude": 1.64367, "country_code": "AD", "population": 0}
{"geonameid": 3039092, "name": "Basses de Setut", "latitude": 42.48195, "longitude": 1.64586, "country_code": "AD", "population": 0}
{"geonameid": 3039093, "name": "Setut", "latitude": 42.4761, "longitude": 1.64936, "country_code": "AD", "population": 0}
{"geonameid": 3039094, "name": "Carretera de Setúria", "latitude": 42.54378, "longitude": 1.45346, "country_code": "AD", "population": 0}
{"geonameid": 3039095, "name": "Camí de Setúria", "latitude": 42.54238, "longitude": 1.45994, "country_code": "AD", "population": 0}
{"geonameid": 3039096, "name": "Bordes de Setúria", "latitude": 42.54502, "longitude": 1.44014, "country_code": "AD", "population": 0}
{"geonameid": 3039097, "name": "Setúria", "latitude": 42.54951, "longitude": 1.43686, "country_code": "AD", "population": 0}
{"geonameid": 3039098, "name": "Tarteres de la Serrera", "latitude": 42.61736, "longitude": 1.58304, "country_code": "AD", "population": 0}
{"geonameid": 3039099, "name": "Riu de la Serrera", "latitude": 42.62295, "longitude": 1.57525, "country_code": "AD", "population": 0}
{"geonameid": 3039100, "name": "Pleta de la Serrera", "latitude": 42.62083, "longitude": 1.57954, "country_code": "AD", "population": 0}
{"geonameid": 3039101, "name": "Pic de la Serrera", "latitude": 42.62562, "longitude": 1.60103, "country_code": "AD", "population": 0}
{"geonameid": 3039102, "name": "Pas de la Serrera", "latitude": 42.62197, "longitude": 1.57915, "country_code": "AD", "population": 0}
{"geonameid": 3039103, "name": "Clots de la Serrera", "latitude": 42.61722, "longitude": 1.59939, "country_code": "AD", "population": 0}
{"geonameid": 3039104, "name": "Aspres de la Serrera", "latitude": 42.61261, "longitude": 1.58919, "country_code": "AD", "population": 0}
{"geonameid": 3039105, "name": "Canal de Serrats", "latitude": 42.52967, "longitude": 1.50344, "country_code": "AD", "population": 0}
{"geonameid": 3039106, "name": "Camí del Serrat Pla", "latitude": 42.44084, "longitude": 1.46306, "country_code": "AD", "population": 0}
{"geonameid": 3039107, "name": "Bosc del Serrat Llong", "latitude": 42.52286, "longitude": 1.48807, "country_code": "AD", "population": 0}
{"geonameid": 3039108, "name": "Planell del Serrat del Tronc", "latitude": 42.58134, "longitude": 1.6222, "country_code": "AD", "population": 0}
{"geonameid": 3039109, "name": "Cabana del Serrat de la Barracota", "latitude": 42.48234, "longitude": 1.63098, "country_code": "AD", "population": 0}
{"geonameid": 3039110, "name": "Pic de Serra Seca", "latitude": 42.50757, "longitude": 1.7089, "country_code": "AD", "population": 0}
{"geonameid": 3039111, "name": "Canal de Serra Plana", "latitude": 42.48484, "longitude": 1.49463, "country_code": "AD", "population": 0}
{"geonameid": 3039112, "name": "Riu de Serrana", "latitude": 42.54978, "longitude": 1.51102, "country_code": "AD", "population": 0}
{"geonameid": 3039113, "name": "Pic de Serra Mitjana", "latitude": 42.47512, "longitude": 1.61682, "country_code": "AD", "population": 0}
{"geonameid": 3039114, "name": "Estany de Serra Mitjana", "latitude": 42.47497, "longitude": 1.61125, "country_code": "AD", "population": 0}
{"geonameid": 3039115, "name": "Canal Ampla de Serra Mitjana", "latitude": 42.47738, "longitude": 1.62038, "country_code": "AD", "population": 0}
{"geonameid": 3039116, "name": "Canal de la Serradora", "latitude": 42.48452, "longitude": 1.4721, "country_code": "AD", "population": 0}
{"geonameid": 3039117, "name": "Canal Serradora", "latitude": 42.49971, "longitude": 1.57781, "country_code": "AD", "population": 0}
{"geonameid": 3039118, "name": "Cap de la Serra dels Isards", "latitude": 42.58606, "longitude": 1.59218, "country_code": "AD", "population": 0}
{"geonameid": 3039119, "name": "Serrat dels Serradells", "latitude": 42.61961, "longitude": 1.53763, "country_code": "AD", "population": 0}
{"geonameid": 3039120, "name": "Cortal de la Serra", "latitude": 42.53914, "longitude": 1.49664, "country_code": "AD", "population": 0}
{"geonameid": 3039121, "name": "Cap de la Serrera", "latitude": 42.61738, "longitude": 1.60429, "country_code": "AD", "population": 0}
{"geonameid": 3039122, "name": "Roc de la Senyoreta", "latitude": 42.44497, "longitude": 1.48872, "country_code": "AD", "population": 0}
{"geonameid": 3039123, "name": "Bosc de la Senyoreta", "latitude": 42.44607, "longitude": 1.49014, "country_code": "AD", "population": 0}
{"geonameid": 3039124, "name": "Senyal Negre", "latitude": 42.64862, "longitude": 1.56174, "country_code": "AD", "population": 0}
{"geonameid": 3039125, "name": "Senyal de Missa", "latitude": 42.46753, "longitude": 1.48366, "country_code": "AD", "population": 0}
{"geonameid": 3039126, "name": "Roc de Senders", "latitude": 42.50244, "longitude": 1.52863, "country_code": "AD", "population": 0}
{"geonameid": 3039127, "name": "Sella", "latitude": 42.56258, "longitude": 1.59241, "country_code": "AD", "population": 0}
{"geonameid": 3039128, "name": "Riu del Seig", "latitude": 42.57064, "longitude": 1.61092, "country_code": "AD", "population": 0}
{"geonameid": 3039129, "name": "Canal del Seig", "latitude": 42.60689, "longitude": 1.53368, "country_code": "AD", "population": 0}
{"geonameid": 3039130, "name": "Solà de Segudet", "latitude": 42.56053, "longitude": 1.53745, "country_code": "AD", "population": 0}
{"geonameid": 3039131, "name": "Riu de Segudet", "latitude": 42.5579, "longitude": 1.54232, "country_code": "AD", "population": 0}
{"geonameid": 3039132, "name": "Segudet", "latitude": 42.55713, "longitude": 1.53808, "country_code": "AD", "population": 0}
{"geonameid": 3039133, "name": "Estany Segon", "latitude": 42.61012, "longitude": 1.72483, "country_code": "AD", "population": 0}
{"geonameid": 3039134, "name": "Torrent del Segalars", "latitude": 42.53784, "longitude": 1.58428, "country_code": "AD", "population": 0}
{"geonameid": 3039135, "name": "Camí de Sedornet", "latitude": 42.58966, "longitude": 1.51235, "country_code": "AD", "population": 0}
{"geonameid": 3039136, "name": "Bordes de Sedornet", "latitude": 42.59057, "longitude": 1.51759, "country_code": "AD", "population": 0}
{"geonameid": 3039137, "name": "Costa Seda", "latitude": 42.48678, "longitude": 1.50183, "country_code": "AD", "population": 0}
{"geonameid": 3039138, "name": "Planells Secants", "latitude": 42.43506, "longitude": 1.53791, "country_code": "AD", "population": 0}
{"geonameid": 3039139, "name": "Riu Sec", "latitude": 42.52218, "longitude": 1.47458, "country_code": "AD", "population": 0}
{"geonameid": 3039140, "name": "Estany Sec", "latitude": 42.47272, "longitude": 1.62321, "country_code": "AD", "population": 0}
{"geonameid": 3039141, "name": "Borda del Savoiano", "latitude": 42.55854, "longitude": 1.52635, "country_code": "AD", "population": 0}
{"geonameid": 3039142, "name": "Serra de la Sauvata", "latitude": 42.5735, "longitude": 1.57811, "country_code": "AD", "population": 0}
{"geonameid": 3039143, "name": "Costa de la Sauvata", "latitude": 42.57536, "longitude": 1.58103, "country_code": "AD", "population": 0}
{"geonameid": 3039144, "name": "Roc del Sastre", "latitude": 42.5779, "longitude": 1.62507, "country_code": "AD", "population": 0}
{"geonameid": 3039145, "name": "Pont Sassanat", "latitude": 42.50061, "longitude": 1.55539, "country_code": "AD", "population": 0}
{"geonameid": 3039146, "name": "Saquet", "latitude": 42.55487, "longitude": 1.59841, "country_code": "AD", "population": 0}
{"geonameid": 3039147, "name": "Roc de Sant Vicenç", "latitude": 42.49531, "longitude": 1.49424, "country_code": "AD", "population": 0}
{"geonameid": 3039148, "name": "Collet de Sant Vicenç", "latitude": 42.49704, "longitude": 1.49334, "country_code": "AD", "population": 0}
{"geonameid": 3039149, "name": "Solà de Santserra", "latitude": 42.47677, "longitude": 1.4572, "country_code": "AD", "population": 0}
{"geonameid": 3039150, "name": "Sant Romà de Vila", "latitude": 42.53083, "longitude": 1.56861, "country_code": "AD", "population": 0}
{"geonameid": 3039151, "name": "Sant Romà de les Bons", "latitude": 42.53907, "longitude": 1.5871, "country_code": "AD", "population": 0}
{"geonameid": 3039152, "name": "Bosc de Sant Romà", "latitude": 42.45309, "longitude": 1.49933, "country_code": "AD", "population": 0}
{"geonameid": 3039153, "name": "Sant Romà", "latitude": 42.4527, "longitude": 1.49807, "country_code": "AD", "population": 0}
{"geonameid": 3039154, "name": "El Tarter", "latitude": 42.57952, "longitude": 1.65362, "country_code": "AD", "population": 1052}
{"geonameid": 3039155, "name": "Sant Miquel d'Engolasters", "latitude": 42.51094, "longitude": 1.56008, "country_code": "AD", "population": 0}
{"geonameid": 3039156, "name": "Sant Miquel de Fontaneda", "latitude": 42.45439, "longitude": 1.46489, "country_code": "AD", "population": 0}
{"geonameid": 3039157, "name": "Solà de Sant Miquel", "latitude": 42.58601, "longitude": 1.66094, "country_code": "AD", "population": 0}
{"geonameid": 3039158, "name": "Roc de Sant Miquel", "latitude": 42.58209, "longitude": 1.65845, "country_code": "AD", "population": 0}
{"geonameid": 3039159, "name": "Drecera de Sant Martí", "latitude": 42.47776, "longitude": 1.4936, "country_code": "AD", "population": 0}
{"geonameid": 3039160, "name": "Sant Martí", "latitude": 42.47537, "longitude": 1.49683, "country_code": "AD", "population": 0}
{"geonameid": 3039161, "name": "Sant Martí", "latitude": 42.47459, "longitude": 1.49488, "country_code": "AD", "population": 0}
{"geonameid": 3039162, "name": "Sant Julià de Lòria", "latitude": 42.46247, "longitude": 1.48247, "country_code": "AD", "population": 9448}
{"geonameid": 3039163, "name": "Sant Julià de Lòria", "latitude": 42.46372, "longitude": 1.49129, "country_code": "AD", "population": 8022}
{"geonameid": 3039164, "name": "Riu de Sant Josep", "latitude": 42.56485, "longitude": 1.75281, "country_code": "AD", "population": 0}
{"geonameid": 3039165, "name": "Clot de Sant Josep", "latitude": 42.57901, "longitude": 1.70707, "country_code": "AD", "population": 0}
{"geonameid": 3039166, "name": "Sant Joan de Caselles", "latitude": 42.57116, "longitude": 1.60761, "country_code": "AD", "population": 0}
{"geonameid": 3039167, "name": "Serrat de Sant Jaume", "latitude": 42.53379, "longitude": 1.60619, "country_code": "AD", "population": 0}
{"geonameid": 3039168, "name": "Sant Jaume", "latitude": 42.58068, "longitude": 1.63858, "country_code": "AD", "population": 0}
{"geonameid": 3039169, "name": "Sant Jaume", "latitude": 42.53417, "longitude": 1.60528, "country_code": "AD", "population": 0}
{"geonameid": 3039170, "name": "Sant Esteve", "latitude": 42.44038, "longitude": 1.49421, "country_code": "AD", "population": 0}
{"geonameid": 3039171, "name": "Sant Esteve", "latitude": 42.44186, "longitude": 1.45118, "country_code": "AD", "population": 0}
{"geonameid": 3039172, "name": "Sant Cristòfol", "latitude": 42.44575, "longitude": 1.50285, "country_code": "AD", "population": 0}
{"geonameid": 3039173, "name": "Sant Cristòfol", "latitude": 42.5346, "longitude": 1.52486, "country_code": "AD", "population": 0}
{"geonameid": 3039174, "name": "Solà de Sant Cerni", "latitude": 42.46971, "longitude": 1.50554, "country_code": "AD", "population": 0}
{"geonameid": 3039175, "name": "Eglèsia de Sant Cerni", "latitude": 42.56667, "longitude": 1.59738, "country_code": "AD", "population": 0}
{"geonameid": 3039176, "name": "Sant Cerni", "latitude": 42.46905, "longitude": 1.50228, "country_code": "AD", "population": 0}
{"geonameid": 3039177, "name": "Sant Antoni de la Grella", "latitude": 42.52713, "longitude": 1.52117, "country_code": "AD", "population": 0}
{"geonameid": 3039178, "name": "Túnels de Sant Antoni", "latitude": 42.52773, "longitude": 1.521, "country_code": "AD", "population": 0}
{"geonameid": 3039179, "name": "Pont de Sant Antoni", "latitude": 42.52436, "longitude": 1.52128, "country_code": "AD", "population": 0}
{"geonameid": 3039180, "name": "Pont de Santa Creu", "latitude": 42.56566, "longitude": 1.59976, "country_code": "AD", "population": 0}
{"geonameid": 3039181, "name": "Santa Coloma", "latitude": 42.49454, "longitude": 1.49897, "country_code": "AD", "population": 0}
{"geonameid": 3039182, "name": "Santa Caterina", "latitude": 42.54588, "longitude": 1.51957, "country_code": "AD", "population": 0}
{"geonameid": 3039183, "name": "Cortal del Sansa", "latitude": 42.49205, "longitude": 1.51749, "country_code": "AD", "population": 0}
{"geonameid": 3039184, "name": "Portella de Sanfons", "latitude": 42.57284, "longitude": 1.43574, "country_code": "AD", "population": 0}
{"geonameid": 3039185, "name": "Pic de Sanfons", "latitude": 42.58707, "longitude": 1.42735, "country_code": "AD", "population": 0}
{"geonameid": 3039186, "name": "Roc de la Salve", "latitude": 42.53454, "longitude": 1.59271, "country_code": "AD", "population": 0}
{"geonameid": 3039187, "name": "Bosc de la Salvata", "latitude": 42.45256, "longitude": 1.52708, "country_code": "AD", "population": 0}
{"geonameid": 3039188, "name": "Solana del Saltader", "latitude": 42.56683, "longitude": 1.53328, "country_code": "AD", "population": 0}
{"geonameid": 3039189, "name": "Clot del Saltader", "latitude": 42.56926, "longitude": 1.47607, "country_code": "AD", "population": 0}
{"geonameid": 3039190, "name": "Roc del Salt", "latitude": 42.58651, "longitude": 1.59332, "country_code": "AD", "population": 0}
{"geonameid": 3039191, "name": "Clot del Salt", "latitude": 42.58747, "longitude": 1.59385, "country_code": "AD", "population": 0}
{"geonameid": 3039192, "name": "Rius de les Salses", "latitude": 42.63331, "longitude": 1.50223, "country_code": "AD", "population": 0}
{"geonameid": 3039193, "name": "Pont de les Salines", "latitude": 42.61018, "longitude": 1.53765, "country_code": "AD", "population": 0}
{"geonameid": 3039194, "name": "Costa de les Salines", "latitude": 42.61087, "longitude": 1.54022, "country_code": "AD", "population": 0}
{"geonameid": 3039195, "name": "Bosc de les Salines", "latitude": 42.60991, "longitude": 1.52954, "country_code": "AD", "population": 0}
{"geonameid": 3039196, "name": "Basses de les Salamandres", "latitude": 42.60389, "longitude": 1.66216, "country_code": "AD", "population": 0}
{"geonameid": 3039197, "name": "Costa de la Salamandra", "latitude": 42.55212, "longitude": 1.43516, "country_code": "AD", "population": 0}
{"geonameid": 3039198, "name": "Costa Salamandra", "latitude": 42.50371, "longitude": 1.48734, "country_code": "AD", "population": 0}
{"geonameid": 3039199, "name": "Roca de la Sabina", "latitude": 42.57144, "longitude": 1.47162, "country_code": "AD", "population": 0}
{"geonameid": 3039200, "name": "Cortal del Sabater", "latitude": 42.44499, "longitude": 1.47682, "country_code": "AD", "population": 0}
{"geonameid": 3039201, "name": "Bosc del Sabater", "latitude": 42.4443, "longitude": 1.47967, "country_code": "AD", "population": 0}
{"geonameid": 3039202, "name": "Borda del Sabater", "latitude": 42.44537, "longitude": 1.48222, "country_code": "AD", "population": 0}
{"geonameid": 3039203, "name": "Canal dels Rulls", "latitude": 42.47635, "longitude": 1.47446, "country_code": "AD", "population": 0}
{"geonameid": 3039204, "name": "Canal de Ruixol", "latitude": 42.58871, "longitude": 1.52149, "country_code": "AD", "population": 0}
{"geonameid": 3039205, "name": "Torrent del Ruïder", "latitude": 42.57705, "longitude": 1.47981, "country_code": "AD", "population": 0}
{"geonameid": 3039206, "name": "Roc del Ruïder", "latitude": 42.58063, "longitude": 1.48135, "country_code": "AD", "population": 0}
{"geonameid": 3039207, "name": "Pala del Ruf", "latitude": 42.58765, "longitude": 1.44952, "country_code": "AD", "population": 0}
{"geonameid": 3039208, "name": "Basses del Ruf", "latitude": 42.5867, "longitude": 1.45048, "country_code": "AD", "population": 0}
{"geonameid": 3039209, "name": "Serrat de Rudielles", "latitude": 42.49491, "longitude": 1.45848, "country_code": "AD", "population": 0}
{"geonameid": 3039210, "name": "Canal de Rudielles", "latitude": 42.48862, "longitude": 1.45191, "country_code": "AD", "population": 0}
{"geonameid": 3039211, "name": "Vial de Rubials", "latitude": 42.48312, "longitude": 1.45005, "country_code": "AD", "population": 0}
{"geonameid": 3039212, "name": "Torrent de Rubials", "latitude": 42.48414, "longitude": 1.45363, "country_code": "AD", "population": 0}
{"geonameid": 3039213, "name": "Solana de Rubials", "latitude": 42.48401, "longitude": 1.44628, "country_code": "AD", "population": 0}
{"geonameid": 3039214, "name": "Rua del Terrer Roi", "latitude": 42.44286, "longitude": 1.51518, "country_code": "AD", "population": 0}
{"geonameid": 3039215, "name": "Bosc de Roures", "latitude": 42.60024, "longitude": 1.52409, "country_code": "AD", "population": 0}
{"geonameid": 3039216, "name": "Collet de Roques Negres", "latitude": 42.45078, "longitude": 1.4475, "country_code": "AD", "population": 0}
{"geonameid": 3039217, "name": "Roques Negres", "latitude": 42.45124, "longitude": 1.44594, "country_code": "AD", "population": 0}
{"geonameid": 3039218, "name": "Serrat de Roques Grosses", "latitude": 42.58121, "longitude": 1.59754, "country_code": "AD", "population": 0}
{"geonameid": 3039219, "name": "Canal de Roques Blanques", "latitude": 42.49952, "longitude": 1.49843, "country_code": "AD", "population": 0}
{"geonameid": 3039220, "name": "Fontanal de les Roques", "latitude": 42.5311, "longitude": 1.46618, "country_code": "AD", "population": 0}
{"geonameid": 3039221, "name": "Pleta de les Romes", "latitude": 42.6438, "longitude": 1.55782, "country_code": "AD", "population": 0}
{"geonameid": 3039222, "name": "Font Roja", "latitude": 42.54252, "longitude": 1.44615, "country_code": "AD", "population": 0}
{"geonameid": 3039223, "name": "Font Roja", "latitude": 42.47534, "longitude": 1.49847, "country_code": "AD", "population": 0}
{"geonameid": 3039224, "name": "Bassa Roja", "latitude": 42.60119, "longitude": 1.66433, "country_code": "AD", "population": 0}
{"geonameid": 3039225, "name": "Grau Roig", "latitude": 42.58134, "longitude": 1.47244, "country_code": "AD", "population": 0}
{"geonameid": 3039226, "name": "Borda de Roig", "latitude": 42.57414, "longitude": 1.58993, "country_code": "AD", "population": 0}
{"geonameid": 3039227, "name": "Fonts Roges", "latitude": 42.57051, "longitude": 1.45914, "country_code": "AD", "population": 0}
{"geonameid": 3039228, "name": "Fonts Roges", "latitude": 42.56407, "longitude": 1.64446, "country_code": "AD", "population": 0}
{"geonameid": 3039229, "name": "Canals Roges", "latitude": 42.58368, "longitude": 1.71285, "country_code": "AD", "population": 0}
{"geonameid": 3039230, "name": "Basses Roges", "latitude": 42.47092, "longitude": 1.55955, "country_code": "AD", "population": 0}
{"geonameid": 3039231, "name": "Font Rodona", "latitude": 42.5482, "longitude": 1.42423, "country_code": "AD", "population": 0}
{"geonameid": 3039232, "name": "Costa Rodona", "latitude": 42.64918, "longitude": 1.48466, "country_code": "AD", "population": 0}
{"geonameid": 3039233, "name": "Costa Rodona", "latitude": 42.58166, "longitude": 1.44422, "country_code": "AD", "population": 0}
{"geonameid": 3039234, "name": "Costa Rodona", "latitude": 42.5542, "longitude": 1.72321, "country_code": "AD", "population": 0}
{"geonameid": 3039235, "name": "Boïga Rodona", "latitude": 42.44407, "longitude": 1.53258, "country_code": "AD", "population": 0}
{"geonameid": 3039236, "name": "Bosc del Ródol", "latitude": 42.49006, "longitude": 1.57324, "country_code": "AD", "population": 0}
{"geonameid": 3039237, "name": "Turó Rodó", "latitude": 42.57146, "longitude": 1.54149, "country_code": "AD", "population": 0}
{"geonameid": 3039238, "name": "Roc Rodó", "latitude": 42.55877, "longitude": 1.43352, "country_code": "AD", "population": 0}
{"geonameid": 3039239, "name": "Roc Rodó", "latitude": 42.56921, "longitude": 1.49279, "country_code": "AD", "population": 0}
{"geonameid": 3039240, "name": "Pla de Rodó", "latitude": 42.54287, "longitude": 1.43557, "country_code": "AD", "population": 0}
{"geonameid": 3039241, "name": "Estany Rodó", "latitude": 42.52213, "longitude": 1.68115, "country_code": "AD", "population": 0}
{"geonameid": 3039242, "name": "Estany Rodó", "latitude": 42.49518, "longitude": 1.65469, "country_code": "AD", "population": 0}
{"geonameid": 3039243, "name": "Bony Rodó", "latitude": 42.61625, "longitude": 1.54478, "country_code": "AD", "population": 0}
{"geonameid": 3039244, "name": "Rocs Tous", "latitude": 42.54082, "longitude": 1.5801, "country_code": "AD", "population": 0}
{"geonameid": 3039245, "name": "Rocs Negres", "latitude": 42.54128, "longitude": 1.61407, "country_code": "AD", "population": 0}
{"geonameid": 3039246, "name": "Planell del Roc Gros", "latitude": 42.58879, "longitude": 1.48831, "country_code": "AD", "population": 0}
{"geonameid": 3039247, "name": "Bosc del Roc Gros", "latitude": 42.58606, "longitude": 1.48585, "country_code": "AD", "population": 0}
{"geonameid": 3039248, "name": "Serra del Roc del Rellotge", "latitude": 42.61479, "longitude": 1.57912, "country_code": "AD", "population": 0}
{"geonameid": 3039249, "name": "Font del Roc del Porquer", "latitude": 42.59237, "longitude": 1.45511, "country_code": "AD", "population": 0}
{"geonameid": 3039250, "name": "Canal del Roc de la Grael", "latitude": 42.51759, "longitude": 1.53197, "country_code": "AD", "population": 0}
{"geonameid": 3039251, "name": "Roca Podrida", "latitude": 42.55124, "longitude": 1.50757, "country_code": "AD", "population": 0}
{"geonameid": 3039252, "name": "Costa de Roca Negra", "latitude": 42.58879, "longitude": 1.58678, "country_code": "AD", "population": 0}
{"geonameid": 3039253, "name": "Canal de Rocanegra", "latitude": 42.49634, "longitude": 1.45717, "country_code": "AD", "population": 0}
{"geonameid": 3039254, "name": "Canal de Roca Major", "latitude": 42.43697, "longitude": 1.49762, "country_code": "AD", "population": 0}
{"geonameid": 3039255, "name": "Planell de la Roca Grossa", "latitude": 42.56664, "longitude": 1.70066, "country_code": "AD", "population": 0}
{"geonameid": 3039256, "name": "Planell de Roca Grossa", "latitude": 42.56066, "longitude": 1.67345, "country_code": "AD", "population": 0}
{"geonameid": 3039257, "name": "Canal de Rocafort", "latitude": 42.46465, "longitude": 1.49106, "country_code": "AD", "population": 0}
{"geonameid": 3039258, "name": "Rocafort", "latitude": 42.46419, "longitude": 1.48672, "country_code": "AD", "population": 0}
{"geonameid": 3039259, "name": "Solana de la Roca de la Sabina", "latitude": 42.57064, "longitude": 1.47456, "country_code": "AD", "population": 0}
{"geonameid": 3039260, "name": "Canal de la Roca Blanca", "latitude": 42.51929, "longitude": 1.52398, "country_code": "AD", "population": 0}
{"geonameid": 3039261, "name": "Vial de la Roca", "latitude": 42.55689, "longitude": 1.61052, "country_code": "AD", "population": 0}
{"geonameid": 3039262, "name": "Pala de la Roca", "latitude": 42.55818, "longitude": 1.61607, "country_code": "AD", "population": 0}
{"geonameid": 3039263, "name": "Bosc de la Roca", "latitude": 42.5514, "longitude": 1.45579, "country_code": "AD", "population": 0}
{"geonameid": 3039264, "name": "Pont del Riu Montaner", "latitude": 42.53, "longitude": 1.52027, "country_code": "AD", "population": 0}
{"geonameid": 3039265, "name": "Camí del Riu del Seig", "latitude": 42.56535, "longitude": 1.60304, "country_code": "AD", "population": 0}
{"geonameid": 3039266, "name": "Riu del Seig", "latitude": 42.56905, "longitude": 1.61063, "country_code": "AD", "population": 0}
{"geonameid": 3039267, "name": "Forat del Riu dels Clots de Massat", "latitude": 42.56117, "longitude": 1.69283, "country_code": "AD", "population": 0}
{"geonameid": 3039268, "name": "Fonts del Riu de les Cebes", "latitude": 42.6203, "longitude": 1.59057, "country_code": "AD", "population": 0}
{"geonameid": 3039269, "name": "Costa del Riu de les Cebes", "latitude": 42.6208, "longitude": 1.5871, "country_code": "AD", "population": 0}
{"geonameid": 3039270, "name": "Collada del Riu de les Cebes", "latitude": 42.62258, "longitude": 1.58847, "country_code": "AD", "population": 0}
{"geonameid": 3039271, "name": "Bony del Riu de les Cebes", "latitude": 42.61744, "longitude": 1.58969, "country_code": "AD", "population": 0}
{"geonameid": 3039272, "name": "Prats del Riu", "latitude": 42.46812, "longitude": 1.50541, "country_code": "AD", "population": 0}
{"geonameid": 3039273, "name": "Canal de Rita", "latitude": 42.5315, "longitude": 1.58544, "country_code": "AD", "population": 0}
{"geonameid": 3039274, "name": "Solà del Riguer", "latitude": 42.49159, "longitude": 1.54716, "country_code": "AD", "population": 0}
{"geonameid": 3039275, "name": "Obaga del Riguer", "latitude": 42.48885, "longitude": 1.54245, "country_code": "AD", "population": 0}
{"geonameid": 3039276, "name": "Bordes de Rigoder", "latitude": 42.53794, "longitude": 1.61648, "country_code": "AD", "population": 0}
{"geonameid": 3039277, "name": "Bosc de les Ribes", "latitude": 42.55492, "longitude": 1.54882, "country_code": "AD", "population": 0}
{"geonameid": 3039278, "name": "Riberal d’Envalira", "latitude": 42.52817, "longitude": 1.70602, "country_code": "AD", "population": 0}
{"geonameid": 3039279, "name": "Canals de Ribera", "latitude": 42.43732, "longitude": 1.4783, "country_code": "AD", "population": 0}
{"geonameid": 3039280, "name": "Ribassot", "latitude": 42.57875, "longitude": 1.4849, "country_code": "AD", "population": 0}
{"geonameid": 3039281, "name": "Torrent de Ribassols", "latitude": 42.57626, "longitude": 1.48074, "country_code": "AD", "population": 0}
{"geonameid": 3039282, "name": "Torrent Ribal", "latitude": 42.57798, "longitude": 1.47811, "country_code": "AD", "population": 0}
{"geonameid": 3039283, "name": "Tosa de Riba Escorjada", "latitude": 42.55522, "longitude": 1.65207, "country_code": "AD", "population": 0}
{"geonameid": 3039284, "name": "Solanelles de Riba Escorjada", "latitude": 42.56203, "longitude": 1.63508, "country_code": "AD", "population": 0}
{"geonameid": 3039285, "name": "Planells de Riba Escorjada", "latitude": 42.56712, "longitude": 1.63987, "country_code": "AD", "population": 0}
{"geonameid": 3039286, "name": "Camí de Riba Escorjada", "latitude": 42.57117, "longitude": 1.642, "country_code": "AD", "population": 0}
{"geonameid": 3039287, "name": "Camí de Riba Escorjada", "latitude": 42.55858, "longitude": 1.60283, "country_code": "AD", "population": 0}
{"geonameid": 3039288, "name": "Riba Escorjada", "latitude": 42.55967, "longitude": 1.64338, "country_code": "AD", "population": 0}
{"geonameid": 3039289, "name": "Bosc de Riba", "latitude": 42.5564, "longitude": 1.58376, "country_code": "AD", "population": 0}
{"geonameid": 3039290, "name": "Bosc del Riambert", "latitude": 42.57647, "longitude": 1.52146, "country_code": "AD", "population": 0}
{"geonameid": 3039291, "name": "Riu de Rialb", "latitude": 42.61495, "longitude": 1.53726, "country_code": "AD", "population": 0}
{"geonameid": 3039292, "name": "Portella de Rialb", "latitude": 42.63958, "longitude": 1.5341, "country_code": "AD", "population": 0}
{"geonameid": 3039293, "name": "Basera de Rialb", "latitude": 42.64523, "longitude": 1.56312, "country_code": "AD", "population": 0}
{"geonameid": 3039294, "name": "Rialb", "latitude": 42.64767, "longitude": 1.5509, "country_code": "AD", "population": 0}
{"geonameid": 3039295, "name": "Pala de Rep", "latitude": 42.54246, "longitude": 1.60643, "country_code": "AD", "population": 0}
{"geonameid": 3039296, "name": "Coll del Rep", "latitude": 42.44971, "longitude": 1.47358, "country_code": "AD", "population": 0}
{"geonameid": 3039297, "name": "Cap de Rep", "latitude": 42.54325, "longitude": 1.61092, "country_code": "AD", "population": 0}
{"geonameid": 3039298, "name": "Rep", "latitude": 42.54767, "longitude": 1.5992, "country_code": "AD", "population": 0}
{"geonameid": 3039299, "name": "Roc del Rellotge", "latitude": 42.61638, "longitude": 1.57199, "country_code": "AD", "population": 0}
{"geonameid": 3039300, "name": "Roc del Rellotge", "latitude": 42.56333, "longitude": 1.62611, "country_code": "AD", "population": 0}
{"geonameid": 3039301, "name": "Font de les Reïneres", "latitude": 42.60175, "longitude": 1.68188, "country_code": "AD", "population": 0}
{"geonameid": 3039302, "name": "Solana de la Regalíssia", "latitude": 42.48783, "longitude": 1.42167, "country_code": "AD", "population": 0}
{"geonameid": 3039303, "name": "Obaga de Redort", "latitude": 42.55721, "longitude": 1.55846, "country_code": "AD", "population": 0}
{"geonameid": 3039304, "name": "Redort", "latitude": 42.55959, "longitude": 1.55223, "country_code": "AD", "population": 0}
{"geonameid": 3039305, "name": "Clot de la Rectoria", "latitude": 42.51922, "longitude": 1.49863, "country_code": "AD", "population": 0}
{"geonameid": 3039306, "name": "Serrat del Rec d’Areny", "latitude": 42.58945, "longitude": 1.46259, "country_code": "AD", "population": 0}
{"geonameid": 3039307, "name": "Bosc de Rèbols", "latitude": 42.46492, "longitude": 1.52539, "country_code": "AD", "population": 0}
{"geonameid": 3039308, "name": "Pont de la Rebollissa", "latitude": 42.61707, "longitude": 1.53638, "country_code": "AD", "population": 0}
{"geonameid": 3039309, "name": "Llanesques de les Rebes", "latitude": 42.62512, "longitude": 1.6278, "country_code": "AD", "population": 0}
{"geonameid": 3039310, "name": "Clot de les Rebes", "latitude": 42.62141, "longitude": 1.63071, "country_code": "AD", "population": 0}
{"geonameid": 3039311, "name": "Rebaixant del Maià", "latitude": 42.56396, "longitude": 1.74459, "country_code": "AD", "population": 0}
{"geonameid": 3039312, "name": "Canal de la Rata", "latitude": 42.58023, "longitude": 1.46982, "country_code": "AD", "population": 0}
{"geonameid": 3039313, "name": "Port de Rat", "latitude": 42.62127, "longitude": 1.47371, "country_code": "AD", "population": 0}
{"geonameid": 3039314, "name": "Bosc de Rasets", "latitude": 42.44165, "longitude": 1.54299, "country_code": "AD", "population": 0}
{"geonameid": 3039315, "name": "Rasa de Perafita", "latitude": 42.48265, "longitude": 1.58675, "country_code": "AD", "population": 0}
{"geonameid": 3039316, "name": "Costa Rasa", "latitude": 42.46548, "longitude": 1.44456, "country_code": "AD", "population": 0}
{"geonameid": 3039317, "name": "Bosc de la Rasa", "latitude": 42.46072, "longitude": 1.53621, "country_code": "AD", "population": 0}
{"geonameid": 3039318, "name": "Presa de Ransol", "latitude": 42.57816, "longitude": 1.63948, "country_code": "AD", "population": 0}
{"geonameid": 3039319, "name": "Carretera de Ransol", "latitude": 42.58082, "longitude": 1.63251, "country_code": "AD", "population": 0}
{"geonameid": 3039320, "name": "Ransol", "latitude": 42.58137, "longitude": 1.63812, "country_code": "AD", "population": 0}
{"geonameid": 3039321, "name": "Roca de Ràmio", "latitude": 42.499, "longitude": 1.57458, "country_code": "AD", "population": 0}
{"geonameid": 3039322, "name": "Ràmio", "latitude": 42.49734, "longitude": 1.57401, "country_code": "AD", "population": 0}
{"geonameid": 3039323, "name": "Canal del Ramer", "latitude": 42.56887, "longitude": 1.4818, "country_code": "AD", "population": 0}
{"geonameid": 3039324, "name": "Canal de la Ramenada", "latitude": 42.50245, "longitude": 1.50757, "country_code": "AD", "population": 0}
{"geonameid": 3039325, "name": "Camí Ral", "latitude": 42.54763, "longitude": 1.59256, "country_code": "AD", "population": 0}
{"geonameid": 3039326, "name": "Camí Ral", "latitude": 42.53785, "longitude": 1.5906, "country_code": "AD", "population": 0}
{"geonameid": 3039327, "name": "Radonella", "latitude": 42.48629, "longitude": 1.44949, "country_code": "AD", "population": 0}
{"geonameid": 3039328, "name": "Radio Andorra", "latitude": 42.5282, "longitude": 1.57089, "country_code": "AD", "population": 0}
{"geonameid": 3039329, "name": "Racons", "latitude": 42.55774, "longitude": 1.58461, "country_code": "AD", "population": 0}
{"geonameid": 3039330, "name": "Pic de la Raconada de la Maiana", "latitude": 42.46449, "longitude": 1.60858, "country_code": "AD", "population": 0}
{"geonameid": 3039331, "name": "Clots de la Raconada de la Maiana", "latitude": 42.47229, "longitude": 1.60896, "country_code": "AD", "population": 0}
{"geonameid": 3039332, "name": "Pic de Racofred", "latitude": 42.60201, "longitude": 1.45053, "country_code": "AD", "population": 0}
{"geonameid": 3039333, "name": "Racó de l’Estany de Cabana Sorda", "latitude": 42.61791, "longitude": 1.66791, "country_code": "AD", "population": 0}
{"geonameid": 3039334, "name": "Pleta del Racó", "latitude": 42.62703, "longitude": 1.5708, "country_code": "AD", "population": 0}
{"geonameid": 3039335, "name": "Pleta del Racó", "latitude": 42.58225, "longitude": 1.4517, "country_code": "AD", "population": 0}
{"geonameid": 3039336, "name": "Canal del Racó", "latitude": 42.57438, "longitude": 1.48712, "country_code": "AD", "population": 0}
{"geonameid": 3039337, "name": "Bassa del Racó", "latitude": 42.61919, "longitude": 1.49881, "country_code": "AD", "population": 0}
{"geonameid": 3039338, "name": "Pleta de la Rabassa", "latitude": 42.62944, "longitude": 1.55699, "country_code": "AD", "population": 0}
{"geonameid": 3039339, "name": "Carretera de la Rabassa", "latitude": 42.44125, "longitude": 1.50146, "country_code": "AD", "population": 0}
{"geonameid": 3039340, "name": "Canya de la Rabassa", "latitude": 42.62594, "longitude": 1.55252, "country_code": "AD", "population": 0}
{"geonameid": 3039341, "name": "Bosc de la Rabassa", "latitude": 42.43843, "longitude": 1.50916, "country_code": "AD", "population": 0}
{"geonameid": 3039342, "name": "Solana del Querol", "latitude": 42.58728, "longitude": 1.52907, "country_code": "AD", "population": 0}
{"geonameid": 3039343, "name": "Riu del Querol", "latitude": 42.58903, "longitude": 1.66775, "country_code": "AD", "population": 0}
{"geonameid": 3039344, "name": "Riu del Querol", "latitude": 42.58598, "longitude": 1.52234, "country_code": "AD", "population": 0}
{"geonameid": 3039345, "name": "Pleta del Querol", "latitude": 42.59565, "longitude": 1.65851, "country_code": "AD", "population": 0}
{"geonameid": 3039346, "name": "Estanyó del Querol", "latitude": 42.59981, "longitude": 1.6597, "country_code": "AD", "population": 0}
{"geonameid": 3039347, "name": "Serrat de la Quera", "latitude": 42.52608, "longitude": 1.51856, "country_code": "AD", "population": 0}
{"geonameid": 3039348, "name": "Canal Gran de la Quera", "latitude": 42.45374, "longitude": 1.46677, "country_code": "AD", "population": 0}
{"geonameid": 3039349, "name": "Bosc de la Quera", "latitude": 42.52679, "longitude": 1.5179, "country_code": "AD", "population": 0}
{"geonameid": 3039350, "name": "Roc del Quer", "latitude": 42.62409, "longitude": 1.55442, "country_code": "AD", "population": 0}
{"geonameid": 3039351, "name": "Roc del Quer", "latitude": 42.5496, "longitude": 1.51454, "country_code": "AD", "population": 0}
{"geonameid": 3039352, "name": "Roc del Quer", "latitude": 42.57692, "longitude": 1.48272, "country_code": "AD", "population": 0}
{"geonameid": 3039353, "name": "Roc del Quer", "latitude": 42.5283, "longitude": 1.60242, "country_code": "AD", "population": 0}
{"geonameid": 3039354, "name": "Roc del Quer", "latitude": 42.5661, "longitude": 1.59185, "country_code": "AD", "population": 0}
{"geonameid": 3039355, "name": "Roc de Quer", "latitude": 42.48008, "longitude": 1.46912, "country_code": "AD", "population": 0}
{"geonameid": 3039356, "name": "Planell del Quer", "latitude": 42.62387, "longitude": 1.55877, "country_code": "AD", "population": 0}
{"geonameid": 3039357, "name": "Canal del Quer", "latitude": 42.62652, "longitude": 1.5562, "country_code": "AD", "population": 0}
{"geonameid": 3039358, "name": "Canal del Quer", "latitude": 42.52851, "longitude": 1.60146, "country_code": "AD", "population": 0}
{"geonameid": 3039359, "name": "Bosc del Quer", "latitude": 42.52948, "longitude": 1.60282, "country_code": "AD", "population": 0}
{"geonameid": 3039360, "name": "Solà del Quart de Nagol", "latitude": 42.47568, "longitude": 1.51985, "country_code": "AD", "population": 0}
{"geonameid": 3039361, "name": "Collet Purgat", "latitude": 42.47248, "longitude": 1.47539, "country_code": "AD", "population": 0}
{"geonameid": 3039363, "name": "Pont de Puntal", "latitude": 42.62258, "longitude": 1.54489, "country_code": "AD", "population": 0}
{"geonameid": 3039364, "name": "Bosc de Puntal", "latitude": 42.62599, "longitude": 1.54425, "country_code": "AD", "population": 0}
{"geonameid": 3039365, "name": "Puntal", "latitude": 42.62472, "longitude": 1.54669, "country_code": "AD", "population": 0}
{"geonameid": 3039366, "name": "Vial dels Pujols", "latitude": 42.48385, "longitude": 1.48911, "country_code": "AD", "population": 0}
{"geonameid": 3039367, "name": "Tarteres dels Pujols", "latitude": 42.48185, "longitude": 1.48395, "country_code": "AD", "population": 0}
{"geonameid": 3039368, "name": "Roc del Pujol", "latitude": 42.47329, "longitude": 1.50108, "country_code": "AD", "population": 0}
{"geonameid": 3039369, "name": "Pujant de Donges", "latitude": 42.45127, "longitude": 1.50732, "country_code": "AD", "population": 0}
{"geonameid": 3039371, "name": "Borda del Puigcernal", "latitude": 42.56265, "longitude": 1.59776, "country_code": "AD", "population": 0}
{"geonameid": 3039372, "name": "Pui d’Olivesa", "latitude": 42.45931, "longitude": 1.48756, "country_code": "AD", "population": 0}
{"geonameid": 3039373, "name": "Pui d’Encamp", "latitude": 42.5276, "longitude": 1.57105, "country_code": "AD", "population": 0}
{"geonameid": 3039374, "name": "Estany Primer", "latitude": 42.63721, "longitude": 1.49019, "country_code": "AD", "population": 0}
{"geonameid": 3039375, "name": "Estany Primer", "latitude": 42.61033, "longitude": 1.71783, "country_code": "AD", "population": 0}
{"geonameid": 3039376, "name": "Estany Primer", "latitude": 42.52509, "longitude": 1.68853, "country_code": "AD", "population": 0}
{"geonameid": 3039377, "name": "Canal de la Presa", "latitude": 42.57737, "longitude": 1.63188, "country_code": "AD", "population": 0}
{"geonameid": 3039378, "name": "Canal de la Premsa", "latitude": 42.47482, "longitude": 1.48586, "country_code": "AD", "population": 0}
{"geonameid": 3039379, "name": "Canal Pregona", "latitude": 42.57239, "longitude": 1.48569, "country_code": "AD", "population": 0}
{"geonameid": 3039380, "name": "Canal Pregona", "latitude": 42.54392, "longitude": 1.50449, "country_code": "AD", "population": 0}
{"geonameid": 3039381, "name": "Torrent Pregó", "latitude": 42.54684, "longitude": 1.59127, "country_code": "AD", "population": 0}
{"geonameid": 3039382, "name": "Bosc dels Prats Sobirans", "latitude": 42.52555, "longitude": 1.47568, "country_code": "AD", "population": 0}
{"geonameid": 3039383, "name": "Planells dels Prats Nous", "latitude": 42.5855, "longitude": 1.48386, "country_code": "AD", "population": 0}
{"geonameid": 3039384, "name": "Bordes dels Prats Nous", "latitude": 42.58447, "longitude": 1.48453, "country_code": "AD", "population": 0}
{"geonameid": 3039385, "name": "Riu de Prats", "latitude": 42.56017, "longitude": 1.59108, "country_code": "AD", "population": 0}
{"geonameid": 3039386, "name": "Prats", "latitude": 42.56003, "longitude": 1.59396, "country_code": "AD", "population": 0}
{"geonameid": 3039387, "name": "Solana de Prat Primer", "latitude": 42.48367, "longitude": 1.55339, "country_code": "AD", "population": 0}
{"geonameid": 3039388, "name": "Planell de Prat Primer", "latitude": 42.48331, "longitude": 1.54968, "country_code": "AD", "population": 0}
{"geonameid": 3039389, "name": "Obaga de Prat Primer", "latitude": 42.48165, "longitude": 1.54724, "country_code": "AD", "population": 0}
{"geonameid": 3039390, "name": "Font de Prat Primer", "latitude": 42.47537, "longitude": 1.55223, "country_code": "AD", "population": 0}
{"geonameid": 3039391, "name": "Collada de Prat Primer", "latitude": 42.47213, "longitude": 1.55795, "country_code": "AD", "population": 0}
{"geonameid": 3039392, "name": "Clots de Prat Primer", "latitude": 42.47834, "longitude": 1.55326, "country_code": "AD", "population": 0}
{"geonameid": 3039393, "name": "Prat Primer", "latitude": 42.48233, "longitude": 1.54981, "country_code": "AD", "population": 0}
{"geonameid": 3039394, "name": "Collada de Prat Porceller", "latitude": 42.4672, "longitude": 1.44163, "country_code": "AD", "population": 0}
{"geonameid": 3039395, "name": "Font del Prat de Roca", "latitude": 42.57779, "longitude": 1.58582, "country_code": "AD", "population": 0}
{"geonameid": 3039396, "name": "Font del Prat dels Pollins", "latitude": 42.5708, "longitude": 1.59126, "country_code": "AD", "population": 0}
{"geonameid": 3039397, "name": "Basers del Prat del Quart", "latitude": 42.6133, "longitude": 1.63098, "country_code": "AD", "population": 0}
{"geonameid": 3039398, "name": "Font del Prat del Gep", "latitude": 42.57591, "longitude": 1.58712, "country_code": "AD", "population": 0}
{"geonameid": 3039399, "name": "Torrent del Prat del Gaspar", "latitude": 42.53199, "longitude": 1.5721, "country_code": "AD", "population": 0}
{"geonameid": 3039400, "name": "Bosc del Prat de l’Estel", "latitude": 42.53853, "longitude": 1.46661, "country_code": "AD", "population": 0}
{"geonameid": 3039401, "name": "Riu del Prat del Comellar", "latitude": 42.58058, "longitude": 1.64828, "country_code": "AD", "population": 0}
{"geonameid": 3039402, "name": "Solana del Prat del Bosc", "latitude": 42.57626, "longitude": 1.47104, "country_code": "AD", "population": 0}
{"geonameid": 3039403, "name": "Riu del Prat del Bosc", "latitude": 42.54289, "longitude": 1.48072, "country_code": "AD", "population": 0}
{"geonameid": 3039404, "name": "Pont del Prat del Bosc", "latitude": 42.53966, "longitude": 1.47108, "country_code": "AD", "population": 0}
{"geonameid": 3039405, "name": "Bosc del Prat del Bosc", "latitude": 42.53597, "longitude": 1.46995, "country_code": "AD", "population": 0}
{"geonameid": 3039406, "name": "Obagues del Prat de la Posella", "latitude": 42.4853, "longitude": 1.45137, "country_code": "AD", "population": 0}
{"geonameid": 3039407, "name": "Basera del Prat de la Farga", "latitude": 42.48759, "longitude": 1.4521, "country_code": "AD", "population": 0}
{"geonameid": 3039408, "name": "Basers del Prat de la Creu", "latitude": 42.60307, "longitude": 1.63132, "country_code": "AD", "population": 0}
{"geonameid": 3039409, "name": "Obaga dels Pradets", "latitude": 42.48796, "longitude": 1.44994, "country_code": "AD", "population": 0}
{"geonameid": 3039410, "name": "Roc dels Pous", "latitude": 42.55231, "longitude": 1.62614, "country_code": "AD", "population": 0}
{"geonameid": 3039411, "name": "Bosc dels Pous", "latitude": 42.55656, "longitude": 1.49076, "country_code": "AD", "population": 0}
{"geonameid": 3039412, "name": "Serrat del Pouet", "latitude": 42.55401, "longitude": 1.51422, "country_code": "AD", "population": 0}
{"geonameid": 3039413, "name": "Canal del Pouet", "latitude": 42.57279, "longitude": 1.53702, "country_code": "AD", "population": 0}
{"geonameid": 3039414, "name": "Costa del Pou", "latitude": 42.58243, "longitude": 1.59081, "country_code": "AD", "population": 0}
{"geonameid": 3039415, "name": "Bosc de les Poselletes", "latitude": 42.54128, "longitude": 1.45091, "country_code": "AD", "population": 0}
{"geonameid": 3039416, "name": "Bony de la Posella", "latitude": 42.58484, "longitude": 1.47764, "country_code": "AD", "population": 0}
{"geonameid": 3039417, "name": "Posada dels Pastors", "latitude": 42.57602, "longitude": 1.48744, "country_code": "AD", "population": 0}
{"geonameid": 3039418, "name": "Font de la Posada", "latitude": 42.46481, "longitude": 1.44696, "country_code": "AD", "population": 0}
{"geonameid": 3039419, "name": "Serrat de la Posa", "latitude": 42.55568, "longitude": 1.6752, "country_code": "AD", "population": 0}
{"geonameid": 3039420, "name": "Turó del Port Vell", "latitude": 42.65233, "longitude": 1.5624, "country_code": "AD", "population": 0}
{"geonameid": 3039421, "name": "Pic del Port Vell", "latitude": 42.57205, "longitude": 1.44341, "country_code": "AD", "population": 0}
{"geonameid": 3039422, "name": "Canal del Port Vell", "latitude": 42.56823, "longitude": 1.45008, "country_code": "AD", "population": 0}
{"geonameid": 3039423, "name": "Clot de Port Negre", "latitude": 42.46279, "longitude": 1.56575, "country_code": "AD", "population": 0}
{"geonameid": 3039424, "name": "Basers de les Portes", "latitude": 42.48037, "longitude": 1.49438, "country_code": "AD", "population": 0}
{"geonameid": 3039425, "name": "Portella de la Portelleta", "latitude": 42.47525, "longitude": 1.6504, "country_code": "AD", "population": 0}
{"geonameid": 3039426, "name": "Tossa Plana de Lles", "latitude": 42.46855, "longitude": 1.65882, "country_code": "AD", "population": 0}
{"geonameid": 3039427, "name": "Font de la Portelleta", "latitude": 42.47496, "longitude": 1.65644, "country_code": "AD", "population": 0}
{"geonameid": 3039428, "name": "Collada de la Portelleta", "latitude": 42.47242, "longitude": 1.66211, "country_code": "AD", "population": 0}
{"geonameid": 3039429, "name": "Riu de les Portelles", "latitude": 42.61047, "longitude": 1.63773, "country_code": "AD", "population": 0}
{"geonameid": 3039430, "name": "Clots de la Portella de Setut", "latitude": 42.47275, "longitude": 1.64453, "country_code": "AD", "population": 0}
{"geonameid": 3039431, "name": "Pleta de la Portella", "latitude": 42.57144, "longitude": 1.72112, "country_code": "AD", "population": 0}
{"geonameid": 3039432, "name": "Collada de la Portella", "latitude": 42.47399, "longitude": 1.64028, "country_code": "AD", "population": 0}
{"geonameid": 3039433, "name": "Riu del Port Dret", "latitude": 42.59367, "longitude": 1.46047, "country_code": "AD", "population": 0}
{"geonameid": 3039434, "name": "Estany del Port Dret", "latitude": 42.60273, "longitude": 1.45965, "country_code": "AD", "population": 0}
{"geonameid": 3039435, "name": "Costa del Port Dret", "latitude": 42.57726, "longitude": 1.70005, "country_code": "AD", "population": 0}
{"geonameid": 3039436, "name": "Clots del Port Dret", "latitude": 42.57581, "longitude": 1.6921, "country_code": "AD", "population": 0}
{"geonameid": 3039437, "name": "Camí del Port Dret", "latitude": 42.57838, "longitude": 1.6655, "country_code": "AD", "population": 0}
{"geonameid": 3039439, "name": "Camí del Port de Setut", "latitude": 42.46782, "longitude": 1.63909, "country_code": "AD", "population": 0}
{"geonameid": 3039440, "name": "Basses del Port de Rat", "latitude": 42.62133, "longitude": 1.4783, "country_code": "AD", "population": 0}
{"geonameid": 3039441, "name": "Font del Port de Cabús", "latitude": 42.54542, "longitude": 1.42199, "country_code": "AD", "population": 0}
{"geonameid": 3039442, "name": "Planades del Port", "latitude": 42.56656, "longitude": 1.44682, "country_code": "AD", "population": 0}
{"geonameid": 3039443, "name": "Costa del Port", "latitude": 42.5644, "longitude": 1.44451, "country_code": "AD", "population": 0}
{"geonameid": 3039444, "name": "Costa del Port", "latitude": 42.54178, "longitude": 1.71481, "country_code": "AD", "population": 0}
{"geonameid": 3039445, "name": "Clots del Port", "latitude": 42.4696, "longitude": 1.58839, "country_code": "AD", "population": 0}
{"geonameid": 3039446, "name": "Clot del Port", "latitude": 42.48831, "longitude": 1.65472, "country_code": "AD", "population": 0}
{"geonameid": 3039447, "name": "Canal del Port", "latitude": 42.5681, "longitude": 1.44997, "country_code": "AD", "population": 0}
{"geonameid": 3039448, "name": "Camí del Port", "latitude": 42.47639, "longitude": 1.58502, "country_code": "AD", "population": 0}
{"geonameid": 3039449, "name": "Roc del Porquer", "latitude": 42.59128, "longitude": 1.45625, "country_code": "AD", "population": 0}
{"geonameid": 3039450, "name": "Oratori del Pont d’Aixovall", "latitude": 42.47634, "longitude": 1.49225, "country_code": "AD", "population": 0}
{"geonameid": 3039451, "name": "Canal del Pont", "latitude": 42.49813, "longitude": 1.55223, "country_code": "AD", "population": 0}
{"geonameid": 3039452, "name": "Riu Pollós", "latitude": 42.57642, "longitude": 1.48026, "country_code": "AD", "population": 0}
{"geonameid": 3039453, "name": "Bosc de la Pollentia", "latitude": 42.53428, "longitude": 1.50692, "country_code": "AD", "population": 0}
{"geonameid": 3039454, "name": "Roc del Poll", "latitude": 42.61563, "longitude": 1.53439, "country_code": "AD", "population": 0}
{"geonameid": 3039455, "name": "Roc de Podoïna", "latitude": 42.45464, "longitude": 1.49839, "country_code": "AD", "population": 0}
{"geonameid": 3039456, "name": "Canal del Pletiu", "latitude": 42.49671, "longitude": 1.58488, "country_code": "AD", "population": 0}
{"geonameid": 3039457, "name": "Serrat de les Pletes", "latitude": 42.48898, "longitude": 1.42836, "country_code": "AD", "population": 0}
{"geonameid": 3039458, "name": "Serrat de la Pleta Vella", "latitude": 42.6022, "longitude": 1.55262, "country_code": "AD", "population": 0}
{"geonameid": 3039459, "name": "Canal de Pleta Mosquera", "latitude": 42.63053, "longitude": 1.51373, "country_code": "AD", "population": 0}
{"geonameid": 3039460, "name": "Canal de la Pleta dels Llacs", "latitude": 42.59724, "longitude": 1.6377, "country_code": "AD", "population": 0}
{"geonameid": 3039461, "name": "Solana de la Pleta del Perro", "latitude": 42.54463, "longitude": 1.62608, "country_code": "AD", "population": 0}
{"geonameid": 3039462, "name": "Canals de la Pleta del Llomar", "latitude": 42.61285, "longitude": 1.56177, "country_code": "AD", "population": 0}
{"geonameid": 3039463, "name": "Bony de la Pleta de Jan", "latitude": 42.62168, "longitude": 1.63325, "country_code": "AD", "population": 0}
{"geonameid": 3039464, "name": "Roc de la Pleta", "latitude": 42.59192, "longitude": 1.46039, "country_code": "AD", "population": 0}
{"geonameid": 3039465, "name": "Costa de la Pleta", "latitude": 42.59311, "longitude": 1.4588, "country_code": "AD", "population": 0}
{"geonameid": 3039466, "name": "Bosc de la Pleta", "latitude": 42.55188, "longitude": 1.4437, "country_code": "AD", "population": 0}
{"geonameid": 3039467, "name": "Barraca de la Pleta", "latitude": 42.57226, "longitude": 1.72051, "country_code": "AD", "population": 0}
{"geonameid": 3039468, "name": "Camí dels Plans", "latitude": 42.58474, "longitude": 1.61547, "country_code": "AD", "population": 0}
{"geonameid": 3039469, "name": "Camí dels Plans", "latitude": 42.54272, "longitude": 1.51091, "country_code": "AD", "population": 0}
{"geonameid": 3039470, "name": "Bosc dels Plans", "latitude": 42.58529, "longitude": 1.62801, "country_code": "AD", "population": 0}
{"geonameid": 3039471, "name": "Bordes dels Plans", "latitude": 42.5388, "longitude": 1.51414, "country_code": "AD", "population": 0}
{"geonameid": 3039472, "name": "Obaga dels Plannels de la Regalíssia", "latitude": 42.48847, "longitude": 1.41656, "country_code": "AD", "population": 0}
{"geonameid": 3039473, "name": "Planes de Fels", "latitude": 42.58837, "longitude": 1.52915, "country_code": "AD", "population": 0}
{"geonameid": 3039474, "name": "Solana de les Planes", "latitude": 42.57533, "longitude": 1.53622, "country_code": "AD", "population": 0}
{"geonameid": 3039475, "name": "Riu de les Planes", "latitude": 42.63268, "longitude": 1.49923, "country_code": "AD", "population": 0}
{"geonameid": 3039476, "name": "Pleta de les Planes", "latitude": 42.63802, "longitude": 1.50503, "country_code": "AD", "population": 0}
{"geonameid": 3039477, "name": "Pic de l' Albeille", "latitude": 42.6457, "longitude": 1.49929, "country_code": "AD", "population": 0}
{"geonameid": 3039478, "name": "Les Planes", "latitude": 42.56142, "longitude": 1.54925, "country_code": "AD", "population": 0}
{"geonameid": 3039479, "name": "Collet de les Planes", "latitude": 42.5695, "longitude": 1.52628, "country_code": "AD", "population": 0}
{"geonameid": 3039480, "name": "Collada de les Planes", "latitude": 42.64205, "longitude": 1.49446, "country_code": "AD", "population": 0}
{"geonameid": 3039481, "name": "Bosc de les Planes", "latitude": 42.52303, "longitude": 1.60934, "country_code": "AD", "population": 0}
{"geonameid": 3039482, "name": "Bony de les Planes", "latitude": 42.54357, "longitude": 1.52038, "country_code": "AD", "population": 0}
{"geonameid": 3039483, "name": "Serrat dels Planells Grans", "latitude": 42.52932, "longitude": 1.53013, "country_code": "AD", "population": 0}
{"geonameid": 3039484, "name": "Cabana dels Planells de Rialb", "latitude": 42.64523, "longitude": 1.55612, "country_code": "AD", "population": 0}
{"geonameid": 3039485, "name": "Planells de Rialb", "latitude": 42.64581, "longitude": 1.55151, "country_code": "AD", "population": 0}
{"geonameid": 3039486, "name": "Riu dels Planells de Caraup", "latitude": 42.60607, "longitude": 1.63868, "country_code": "AD", "population": 0}
{"geonameid": 3039487, "name": "Planells d’Arcalís", "latitude": 42.62729, "longitude": 1.49428, "country_code": "AD", "population": 0}
{"geonameid": 3039488, "name": "Serrat del Planell Lluent", "latitude": 42.56733, "longitude": 1.51685, "country_code": "AD", "population": 0}
{"geonameid": 3039489, "name": "Bony del Planell Gran", "latitude": 42.63333, "longitude": 1.55, "country_code": "AD", "population": 0}
{"geonameid": 3039490, "name": "Bosc de Planavilla", "latitude": 42.56413, "longitude": 1.68923, "country_code": "AD", "population": 0}
{"geonameid": 3039491, "name": "Planavilla", "latitude": 42.56321, "longitude": 1.68796, "country_code": "AD", "population": 0}
{"geonameid": 3039492, "name": "Bosc de la Planassa", "latitude": 42.55595, "longitude": 1.50304, "country_code": "AD", "population": 0}
{"geonameid": 3039493, "name": "Bosc de Plana en Blanca", "latitude": 42.54537, "longitude": 1.57216, "country_code": "AD", "population": 0}
{"geonameid": 3039494, "name": "Tarteres de Plana de Gral", "latitude": 42.58561, "longitude": 1.48903, "country_code": "AD", "population": 0}
{"geonameid": 3039495, "name": "Tosa Plana", "latitude": 42.47587, "longitude": 1.59868, "country_code": "AD", "population": 0}
{"geonameid": 3039496, "name": "Torrent de la Plana", "latitude": 42.53156, "longitude": 1.59115, "country_code": "AD", "population": 0}
{"geonameid": 3039497, "name": "Serra Plana", "latitude": 42.58241, "longitude": 1.60201, "country_code": "AD", "population": 0}
{"geonameid": 3039498, "name": "Serra Plana", "latitude": 42.55991, "longitude": 1.47873, "country_code": "AD", "population": 0}
{"geonameid": 3039499, "name": "Sierra Plana", "latitude": 42.48201, "longitude": 1.43218, "country_code": "AD", "population": 0}
{"geonameid": 3039500, "name": "Cortal de la Plana", "latitude": 42.49322, "longitude": 1.53959, "country_code": "AD", "population": 0}
{"geonameid": 3039501, "name": "Coll de la Plana", "latitude": 42.45737, "longitude": 1.51319, "country_code": "AD", "population": 0}
{"geonameid": 3039502, "name": "Camí de la Plana", "latitude": 42.4975, "longitude": 1.53026, "country_code": "AD", "population": 0}
{"geonameid": 3039503, "name": "Bosquet de la Plana", "latitude": 42.49556, "longitude": 1.5347, "country_code": "AD", "population": 0}
{"geonameid": 3039504, "name": "Bosc de la Plana", "latitude": 42.5429, "longitude": 1.55557, "country_code": "AD", "population": 0}
{"geonameid": 3039505, "name": "Bordes de la Plana", "latitude": 42.53156, "longitude": 1.58964, "country_code": "AD", "population": 0}
{"geonameid": 3039506, "name": "Borda de la Plana", "latitude": 42.54311, "longitude": 1.55196, "country_code": "AD", "population": 0}
{"geonameid": 3039507, "name": "Barranc de la Plana", "latitude": 42.5419, "longitude": 1.55366, "country_code": "AD", "population": 0}
{"geonameid": 3039508, "name": "Serrat del Pla Morell", "latitude": 42.53349, "longitude": 1.53325, "country_code": "AD", "population": 0}
{"geonameid": 3039509, "name": "Torrent de Plamanera", "latitude": 42.52687, "longitude": 1.56739, "country_code": "AD", "population": 0}
{"geonameid": 3039510, "name": "Bosc del Pla de Rodó", "latitude": 42.54166, "longitude": 1.43056, "country_code": "AD", "population": 0}
{"geonameid": 3039511, "name": "Bosc del Pla de Miretes", "latitude": 42.52884, "longitude": 1.48301, "country_code": "AD", "population": 0}
{"geonameid": 3039512, "name": "Pic del Pla de l’Ingla", "latitude": 42.4878, "longitude": 1.63409, "country_code": "AD", "population": 0}
{"geonameid": 3039513, "name": "Pla de l’Ingla", "latitude": 42.48537, "longitude": 1.63328, "country_code": "AD", "population": 0}
{"geonameid": 3039514, "name": "Riu del Pla de l’Estany", "latitude": 42.58291, "longitude": 1.46502, "country_code": "AD", "population": 0}
{"geonameid": 3039515, "name": "Pleta del Pla de l’Estany", "latitude": 42.59231, "longitude": 1.45975, "country_code": "AD", "population": 0}
{"geonameid": 3039516, "name": "Pic des Bareytes", "latitude": 42.60593, "longitude": 1.46269, "country_code": "AD", "population": 0}
{"geonameid": 3039517, "name": "Estret del Pla de l’Estany", "latitude": 42.59425, "longitude": 1.45909, "country_code": "AD", "population": 0}
{"geonameid": 3039518, "name": "Pla de l’Estany", "latitude": 42.59491, "longitude": 1.44823, "country_code": "AD", "population": 0}
{"geonameid": 3039519, "name": "Camí del Pla de les Pedres", "latitude": 42.55354, "longitude": 1.67946, "country_code": "AD", "population": 0}
{"geonameid": 3039520, "name": "Camí del Pla del Bosc", "latitude": 42.54894, "longitude": 1.60827, "country_code": "AD", "population": 0}
{"geonameid": 3039521, "name": "Bosc del Pla de la Cot", "latitude": 42.53053, "longitude": 1.47154, "country_code": "AD", "population": 0}
{"geonameid": 3039522, "name": "Grau de les Places", "latitude": 42.55231, "longitude": 1.46336, "country_code": "AD", "population": 0}
{"geonameid": 3039523, "name": "Pleta de Pixolell", "latitude": 42.58834, "longitude": 1.62962, "country_code": "AD", "population": 0}
{"geonameid": 3039524, "name": "Costes de Pixolell", "latitude": 42.58929, "longitude": 1.6257, "country_code": "AD", "population": 0}
{"geonameid": 3039525, "name": "Pont de la Pixistella", "latitude": 42.55914, "longitude": 1.49401, "country_code": "AD", "population": 0}
{"geonameid": 3039526, "name": "Obac de la Pixistella", "latitude": 42.55412, "longitude": 1.49543, "country_code": "AD", "population": 0}
{"geonameid": 3039527, "name": "Canal de la Pixistella", "latitude": 42.55705, "longitude": 1.49362, "country_code": "AD", "population": 0}
{"geonameid": 3039528, "name": "Bosc de la Pixistella", "latitude": 42.55377, "longitude": 1.49168, "country_code": "AD", "population": 0}
{"geonameid": 3039529, "name": "Font Pixadera", "latitude": 42.49529, "longitude": 1.56196, "country_code": "AD", "population": 0}
{"geonameid": 3039530, "name": "Roca del Pisó", "latitude": 42.53904, "longitude": 1.63363, "country_code": "AD", "population": 0}
{"geonameid": 3039531, "name": "Borda del Pirot", "latitude": 42.58344, "longitude": 1.64785, "country_code": "AD", "population": 0}
{"geonameid": 3039532, "name": "Pirineu", "latitude": 42.52429, "longitude": 1.55655, "country_code": "AD", "population": 0}
{"geonameid": 3039533, "name": "Bosc de la Pinosa de Llumeneres", "latitude": 42.47038, "longitude": 1.51739, "country_code": "AD", "population": 0}
{"geonameid": 3039534, "name": "Bosc de la Pinosa", "latitude": 42.60066, "longitude": 1.6744, "country_code": "AD", "population": 0}
{"geonameid": 3039535, "name": "Bosc de la Pinosa", "latitude": 42.45851, "longitude": 1.50525, "country_code": "AD", "population": 0}
{"geonameid": 3039536, "name": "Serrat Pinós", "latitude": 42.54954, "longitude": 1.68115, "country_code": "AD", "population": 0}
{"geonameid": 3039537, "name": "Collada de Pimes", "latitude": 42.43217, "longitude": 1.54311, "country_code": "AD", "population": 0}
{"geonameid": 3039538, "name": "Canal del Pi Gros", "latitude": 42.49838, "longitude": 1.45806, "country_code": "AD", "population": 0}
{"geonameid": 3039539, "name": "Borda del Piedro", "latitude": 42.58235, "longitude": 1.64009, "country_code": "AD", "population": 0}
{"geonameid": 3039540, "name": "Bosc del Pi de Montsalla", "latitude": 42.53107, "longitude": 1.49221, "country_code": "AD", "population": 0}
{"geonameid": 3039541, "name": "Camí del Pi de la Creu", "latitude": 42.55145, "longitude": 1.60517, "country_code": "AD", "population": 0}
{"geonameid": 3039542, "name": "Canal dels Picons", "latitude": 42.56158, "longitude": 1.5005, "country_code": "AD", "population": 0}
{"geonameid": 3039543, "name": "Bosc del Picó", "latitude": 42.50273, "longitude": 1.5444, "country_code": "AD", "population": 0}
{"geonameid": 3039544, "name": "Basers del Pic de la Cabaneta", "latitude": 42.61534, "longitude": 1.60766, "country_code": "AD", "population": 0}
{"geonameid": 3039545, "name": "Font Picadora", "latitude": 42.57051, "longitude": 1.56966, "country_code": "AD", "population": 0}
{"geonameid": 3039546, "name": "Canal de la Pica", "latitude": 42.50425, "longitude": 1.50985, "country_code": "AD", "population": 0}
{"geonameid": 3039547, "name": "Bony de la Pica", "latitude": 42.50477, "longitude": 1.46105, "country_code": "AD", "population": 0}
{"geonameid": 3039548, "name": "Basses del Pic", "latitude": 42.61844, "longitude": 1.61746, "country_code": "AD", "population": 0}
{"geonameid": 3039549, "name": "Bosc del Peu dels Pessons", "latitude": 42.52676, "longitude": 1.69412, "country_code": "AD", "population": 0}
{"geonameid": 3039550, "name": "Font dels Pets", "latitude": 42.58927, "longitude": 1.48376, "country_code": "AD", "population": 0}
